CustomerId,VisitDuration,VisitFreq,MustVisitDays,EligibilityBeginTime (hh:mm),EligibilityEndTime (hh:mm),Country,City,District,AddressText,Latitude,Longitude,region,RouteCustomerId,RouteRepresentativeId,RouteDay,"RouteDayOfTheWeek
(Mon, Tue, Wed, Thu, Fri, Sat, Sun)","RouteFrequency
(1: Every Week, 
2: Every 2 Weeks, 
3: Everey 3 Weeks, 
4: Every 4 Weeks)",RouteVisitOrder
2,00:30,4,Sat,08:30,12:00,Turkey,ERZURUM,YAKUTIYE,İSTASYON MAHALLESI11111 İSTASYON CADDESI11111  1,39.913934,41.270719,Eastern Anatolia,2,67,2025-02-22,Sat,4,1
7,00:30,4,,08:30,18:00,Turkey,ADANA,YÜREĞIR,19 MAYIS MAHALLESI ÇUKUROVA CADDESI 300,36.980521,35.367678,Mediterranean,7,99,2025-02-19,Wed,4,3
13,00:30,4,,08:30,18:00,Turkey,Karabük,Safranbolu,5000 EVLER 75. YIL MH 71. SOKAK 5000 EVLER 75. YIL MH NO:6  6,41.233278,32.66107,Black Sea,13,91,2025-02-18,Tue,4,1
17,00:30,1,,08:30,18:00,Turkey,MANISA,YUNUSEMRE,75. YIL MAHALLESI BAHRI SARITEPE CADDESI 75. YIL MAHALLESI NO:71/A  71/A,38.6146272369206,27.3817652422926,Aegean,17,25,2025-02-25,Tue,1,5
18,00:30,1,,08:30,18:00,Turkey,İZMIR,KONAK,Kemeraltı 871. SOKAK Kemeraltı NO:52  52,38.333603,27.133406,Aegean,18,181,2025-03-04,Tue,1,2
24,00:30,4,,08:30,18:00,Turkey,MERSIN,TOROSLAR,AKBELEN MAHALLESI AKBELEN BULVARI 172,36.831359,34.591038,Mediterranean,24,774,2025-02-19,Wed,4,4
29,00:30,4,,08:30,18:00,Turkey,ÇORUM,MERKEZ,KUNDUZHAN MAHALLESI TOPTANCILAR SITESI  6,40.535773,34.921053,Black Sea,29,179,2025-02-19,Wed,4,4
32,00:30,4,,08:30,18:00,Turkey,GAZIANTEP,ŞEHITKAMIL,BUDAK MAHALLESI ALI FUAT CEBESOY BULVARI 44,37.073002,37.368371,Southeastern Anatolia,32,176,2025-02-17,Mon,4,2
33,00:30,4,,08:30,18:00,Turkey,GAZIANTEP,ŞEHITKAMIL,BUDAK MAHALLESI ALI FUAT CEBESOY BULVARI 40,37.072963,37.366818,Southeastern Anatolia,33,176,2025-02-19,Wed,4,3
40,00:30,4,,08:30,18:00,Turkey,ESKIŞEHIR,ODUNPAZARI,ARİFİYE MAH İKI EYLÜL CADDESI 90/A,39.7691159172006,30.5215377459137,Central Anatolia,40,168,2025-02-22,Sat,4,5
44,00:30,4,,08:30,18:00,Turkey,Muş,Merkez,hürriyet mahallesi ATATÜRK BULVARI SUBAY GAZINOSU KARSISI   55,38.740604,41.496265,Eastern Anatolia,44,130,2025-02-18,Tue,4,2
45,00:30,4,,08:30,18:00,Turkey,Zonguldak,Devrek,İSMET PAŞA MAHALLESI DR. VEYSEL ATASOY CADDESI İSMET PAŞA MAHALLESI NO:8/A  8/A,41.218011,31.954075,Black Sea,45,90,2025-02-19,Wed,4,1
51,00:30,1,,08:30,18:00,Turkey,MARDIN,KIZILTEPE,TEPEBAŞI MAHALLESI 151. SOKAK  10,37.189424,40.59547,Southeastern Anatolia,51,135,2025-02-25,Tue,1,1
56,00:30,4,,08:30,18:00,Turkey,Edirne,Merkez,B.Camı Mah. Inönü Cad. No:66 Kesan / Edırne /Merkez/Edırne ,40.852958,26.631553,Marmara,56,1302,2025-03-10,Mon,4,4
59,00:30,4,,08:30,18:00,Turkey,DIYARBAKIR,BAĞLAR,BAĞCILAR MAHALLESI 1101. SOKAK  12,37.92775,40.180216,Southeastern Anatolia,59,138,2025-02-18,Tue,4,1
61,00:30,1,,08:30,18:00,Turkey,Batman,Merkez,"BAPLAR MAH BAĞLAR, KIBRIS ŞEHITLERI BLV.  203",37.8938134,41.1226611,Southeastern Anatolia,61,134,2025-02-26,Wed,1,4
67,00:30,4,,08:30,18:00,Turkey,Edirne,Merkez,Balık Pazarı Cd.No:55 Edırne /Merkez/Edırne ,41.674116,26.551221,Marmara,67,124,2025-03-12,Wed,4,3
73,00:30,4,,08:30,18:00,Turkey,ANKARA,MAMAK,BAŞAK MAHALLESI KARAPÜRÇEK CADDESI 10/A,39.966753,32.949325,Central Anatolia,73,144,2025-02-18,Tue,4,1
82,00:30,4,,08:30,18:00,Turkey,MERSIN,ERDEMLI,AKDENIZ MAHALLESI ALPARSLAN TÜRKEŞ BULVARI 513,36.602887,34.304702,Mediterranean,82,59,2025-02-20,Thu,4,1
85,00:30,4,,08:30,18:00,Turkey,ADANA,ÇUKUROVA,BEYAZEVLER MAHALLESI BÜLENT ANGIN BULVARI 8/A,37.031401,35.313907,Mediterranean,85,98,2025-02-18,Tue,4,1
86,00:30,4,,08:30,18:00,Turkey,Tekirdağ,Malkara,Camı Atık Mh.Sehıtlık Cd.No:32 Malkara / Tekırdag /Merkez/Tekırdag ,40.891984,26.903284,Marmara,86,1302,2025-03-10,Mon,4,5
87,00:30,4,,08:30,18:00,Turkey,Kastamonu,Kastamonu Merkez,CEBRAIL MAHALLESI KIRKÇEŞME CADDESI CEBRAIL MAHALLESI NO:16  16,41.377877,33.779084,Black Sea,87,91,2025-02-17,Mon,4,7
88,00:30,4,,08:30,18:00,Turkey,Zonguldak,Zonguldak Merkez,MEŞRUTIYET MAHALLESI UZUN MEHMET CADDESI MEŞRUTIYET MAHALLESI NO:15  15,41.45363,31.788514,Black Sea,88,90,2025-02-17,Mon,4,1
95,00:30,4,,08:30,18:00,Turkey,Van,Tusba,Cumhurıyet Mah.No:251 Emnıyet Kant.Karsısı ,38.487185,43.366127,Eastern Anatolia,95,133,2025-02-17,Mon,4,1
96,00:30,4,,08:30,18:00,Turkey,BITLIS,TATVAN,SAHIL MAHALLESI CUMHURIYET CADDESI  163,38.4955446,42.2863129,Eastern Anatolia,96,130,2025-02-21,Fri,4,2
97,00:30,1,,08:30,18:00,Turkey,MANISA,SARUHANLI,ATATÜRK MAHALLESI 7 EYLÜL CADDESI ATATÜRK MAHALLESI NO:112  112,38.7340767854302,27.5734249552838,Aegean,97,25,2025-02-25,Tue,1,1
98,00:30,4,,08:30,18:00,Turkey,MERSIN,TOROSLAR,ÇAĞDAŞKENT MAHALLESI MIMAR SINAN BULVARI 134,36.838632,34.621339,Mediterranean,98,774,2025-02-19,Wed,4,3
101,00:30,4,,08:30,18:00,Turkey,ESKIŞEHIR,ODUNPAZARI,ÇANKAYA MAHALLESI HUZURLU SOKAK 11,39.754589,30.53481,Central Anatolia,101,168,2025-02-17,Mon,4,3
102,00:30,4,,08:30,18:00,Turkey,Bartın,Bartin Merkez,GÖLBUCAĞI MAHALLESI ESKI HASTANE CADDESI GÖLBUCAĞI MAHALLESI NO:50/A  50/A,41.627731,32.329104,Black Sea,102,90,2025-02-18,Tue,4,2
111,00:30,4,,08:30,18:00,Turkey,MUŞ,MERKEZ,MINARE MAHALLESI PTT CADDESI  2,38.732655,41.492441,Eastern Anatolia,111,130,2025-02-18,Tue,4,1
115,00:30,4,,08:30,18:00,Turkey,DIYARBAKIR,KAYAPINAR,MEZOPOTAMYA MAHALLESI 606. SOKAK  1,37.935672,40.149432,Southeastern Anatolia,115,137,2025-02-22,Sat,4,1
117,00:30,1,,08:30,18:00,Turkey,BATMAN,MERKEZ,PINARBAŞI MAHALLESI OTOPARK  1,37.896072,41.129741,Southeastern Anatolia,117,134,2025-02-26,Wed,1,5
119,00:30,4,,08:30,18:00,Turkey,ADANA,SEYHAN,DÖŞEME MAHALLESI DR. ALI MENTEŞOĞLU CADDESI 1,36.990281,35.320858,Mediterranean,119,99,2025-02-22,Sat,4,1
120,00:30,4,,08:30,18:00,Turkey,KAHRAMANMARAŞ,DULKADIROĞLU,DULKADIROĞLU MAHALLESI TEVFIK KADIOĞLU BULVARI 108/A,37.581069,36.94561,Mediterranean,120,159,2025-02-20,Thu,4,1
122,00:30,4,,08:30,18:00,Turkey,ERZURUM,PALANDÖKEN,MÜFTÜ SOLAKZADE MAHALLESI ALVARLI MEHMET EFENDI CADDESI  12,39.884759,41.264235,Eastern Anatolia,122,136,2025-02-20,Thu,4,1
124,00:30,4,,08:30,18:00,Turkey,TRABZON,ORTAHISAR,3 NOLU ERDOĞDU MAHALLESI SOĞUKSU CADDESI  247,40.99469,39.706028,Black Sea,124,81,2025-02-18,Tue,4,3
125,00:30,4,,08:30,18:00,Turkey,ORDU,ALTINORDU,BAHÇELIEVLER MAHALLESI EROL ATAŞAN BULVARI  45299,40.980997,37.897521,Black Sea,125,83,2025-02-20,Thu,4,5
131,00:30,4,,08:30,18:00,Turkey,Kocaeli,Derince,KURUÇEŞME FATIH MAHALLESI BARIŞ CADDESI KURUÇEŞME FATIH MAHALLESI NO:18/A  18/A,40.765046,29.873649,Marmara,131,174,2025-02-19,Wed,4,1
136,00:30,1,,08:30,18:00,Turkey,MARDIN,KIZILTEPE,İPEK MAHALLESI CEYLANPINAR CADDESI  139/A,37.178497,40.562054,Southeastern Anatolia,136,135,2025-03-01,Sat,1,1
139,00:30,4,,08:30,18:00,Turkey,MERSIN,AKDENIZ,TURGUTREIS MAHALLESI İSTIKLAL CADDESI 1,36.794072,34.613784,Mediterranean,139,100,2025-02-19,Wed,4,1
140,00:30,4,,08:30,18:00,Turkey,ANTALYA,ALANYA,GÜLLER PINARI MAHALLESI HACET CADDESI GÜLLER PINARI MAHALLESI NO:48/B  48/B,36.548242,32.006869,Mediterranean,140,2914,2025-02-18,Tue,4,5
144,00:30,4,,08:30,18:00,Turkey,ANKARA,YENIMAHALLE,MACUN MAHALLESI 195. CADDESI 131/37 ,39.946482,32.766533,Central Anatolia,144,142,2025-02-17,Mon,4,3
152,00:30,4,,08:30,18:00,Turkey,Kocaeli,Körfez,GÜNEY MAHALLESI TUĞRUL CADDESI GÜNEY MAHALLESI NO:24/A  24/A,40.75935364,29.78576851,Marmara,152,174,2025-02-18,Tue,4,2
153,00:30,4,,08:30,18:00,Turkey,GAZIANTEP,ŞAHINBEY,GÜNEYKENT MAHALLESI 102250. CADDESI 24,37.028305,37.321991,Southeastern Anatolia,153,176,2025-02-21,Fri,4,3
166,00:30,1,,08:30,18:00,Turkey,BATMAN,MERKEZ,HÜRRIYET MAHALLESI 27. CADDESI  28,37.876204,41.115827,Southeastern Anatolia,166,134,2025-02-26,Wed,1,2
168,00:30,4,,08:30,18:00,Turkey,BILECIK,BOZÜYÜK,YENI MAHALLESI İSMET İNÖNÜ CADDESI 116,39.904669,30.046718,Marmara,168,151,2025-02-18,Tue,4,5
171,00:30,4,,08:30,18:00,Turkey,ŞANLIURFA,HALILIYE,İMAM BAKIR MAHALLESI RECEP TAYYIP ERDOĞAN BULVARI 148/1,37.16281,38.819203,Southeastern Anatolia,171,177,2025-02-21,Fri,4,2
175,00:30,1,,08:30,18:00,Turkey,MARDIN,KIZILTEPE,İPEK MAHALLESI ŞEHITLIK CADDESI  75/A,37.180443,40.578413,Southeastern Anatolia,175,135,2025-03-01,Sat,1,2
182,00:30,4,,08:30,18:00,Turkey,MUŞ,MERKEZ,YEŞILYURT MAHALLESI İSTASYON CADDESI  20,38.7467384338378,41.5015296936035,Eastern Anatolia,182,130,2025-02-22,Sat,4,2
183,00:30,4,,08:30,18:00,Turkey,Zonguldak,Zonguldak Merkez,KARAELMAS MAHALLESI İSTASYON CADDESI KARAELMAS MAHALLESI NO:9  9,41.449504,31.792418,Black Sea,183,84,2025-02-22,Sat,4,1
184,00:30,4,,08:30,18:00,Turkey,KAHRAMANMARAŞ,DULKADIROĞLU,İSTASYON MAHALLESI GAZI MUSTAFA KEMAL BULVARI 59B,37.55047,36.921938,Mediterranean,184,159,2025-02-17,Mon,4,1
185,00:30,4,,08:30,18:00,Turkey,Zonguldak,Çaycuma,İSTASYON MAHALLESI KENAN AYDIN CADDESI İSTASYON MAHALLESI NO:22/A  22/A,41.423323,32.09407,Black Sea,185,90,2025-02-19,Wed,4,3
187,00:30,1,,08:30,18:00,Turkey,MANISA,TURGUTLU,İSTIKLAL MAHALLESI CEVDET ÖKTEM CADDESI İSTIKLAL MAHALLESI NO:9  9,38.499702,27.710365,Aegean,187,82,2025-02-25,Tue,1,3
188,00:30,1,,08:30,18:00,Turkey,İZMIR,TORBALI,İNÖNÜ MAHALLESI İZMIR AYDIN CADDESI İNÖNÜ MAHALLESI NO:29/A  29/A,38.2375683764687,27.282393425703,Aegean,188,22,2025-02-24,Mon,1,4
195,00:30,4,,08:30,18:00,Turkey,ADANA,KOZAN,KARACAOĞLAN MAHALLESI DEVELI BULVARI 7/A,37.4641352054081,35.8082860429173,Mediterranean,195,96,2025-02-18,Tue,4,3
201,00:30,4,,08:30,18:00,Turkey,ADANA,YÜREĞIR,HAYDAROĞLU MAHALLESI KARATAŞ BULVARI 128/A,36.97056,35.340894,Mediterranean,201,99,2025-02-18,Tue,4,1
203,00:30,4,,08:30,18:00,Turkey,GAZIANTEP,ŞAHINBEY,KARATAŞ MAHALLESI 103400. CADDESI 1,37.0220146179199,37.3390502929688,Southeastern Anatolia,203,176,2025-02-18,Tue,4,3
204,00:30,4,,08:30,18:00,Turkey,GAZIANTEP,ŞAHINBEY,KARATAŞ MAHALLESI 400. CADDESI 13/B,37.017393,37.343186,Southeastern Anatolia,204,176,2025-02-18,Tue,4,5
207,00:30,4,,08:30,18:00,Turkey,ŞANLIURFA,KARAKÖPRÜ,MERKEZ MAHALLESI 401. CADDESI 5/B,37.189689,38.802186,Southeastern Anatolia,207,177,2025-02-21,Fri,4,1
209,00:30,4,,08:30,18:00,Turkey,VAN,İPEKYOLU,BAHÇIVAN MAHALLESI KAZIM KARABEKIR BULVARI  62,38.499678,43.386757,Eastern Anatolia,209,129,2025-02-21,Fri,4,4
214,00:30,4,,08:30,18:00,Turkey,VAN,ERCIŞ,KIŞLA MAHALLESI KIŞLA BULVARI  39,39.027459,43.356224,Eastern Anatolia,214,129,2025-02-21,Fri,4,3
222,00:30,4,,08:30,18:00,Turkey,KAYSERI,MELIKGAZI,KÖŞK MAHALLESI ŞHT. ÜTĞM. MUSTAFA ŞIMŞEK BULVARI  38/B,38.7221328308784,35.5105895921587,Central Anatolia,222,69,2025-02-17,Mon,4,4
226,00:30,4,,08:30,18:00,Turkey,OSMANIYE,DÜZIÇI,İRFANIYE MAHALLESI ŞHT. AHMET METLIOĞLU CADDESI 275,37.249736,36.45822,Mediterranean,226,140,2025-02-19,Wed,4,1
228,00:30,4,,08:30,18:00,Turkey,Kastamonu,Kastamonu Merkez,KUZEYKENT MAHALLESI DEMIRCIOGLU CAD KUZEYKENT MAHALLESI NO:26/a  26/a,41.429354,33.783403,Black Sea,228,91,2025-02-17,Mon,4,2
230,00:30,4,,08:30,18:00,Turkey,BITLIS,TATVAN,KÜLTÜR MAHALLESI VAN BITLIS YOLU  4,38.5027885437011,42.2809906005859,Eastern Anatolia,230,130,2025-02-21,Fri,4,1
232,00:30,1,,08:30,18:00,Turkey,BATMAN,MERKEZ,KÜLTÜR MAHALLESI KIBRIS ŞEHITLER BULVARI  78/1,37.902236,41.119211,Southeastern Anatolia,232,134,2025-02-26,Wed,1,3
233,00:30,4,,08:30,18:00,Turkey,ADANA,YÜREĞIR,LEVENT MAHALLESI LEVENT CADDESI 151,36.977609,35.382847,Mediterranean,233,99,2025-02-19,Wed,4,2
237,00:30,4,,08:30,18:00,Turkey,ANKARA,YENIMAHALLE,MACUN MAH 204.CAD 18,39.948553,32.761524,Central Anatolia,237,145,2025-02-17,Mon,4,2
238,00:30,4,,08:30,18:00,Turkey,ANKARA,YENIMAHALLE,MACUN MAHALLESI BAĞDAT CADDESI 101/1,39.960891,32.767514,Central Anatolia,238,142,2025-02-19,Wed,4,2
243,00:30,4,,08:30,18:00,Turkey,VAN,İPEKYOLU,VALI MITHAT BEY MAHALLESI İSKELE CADDESI  10,38.504663,43.394973,Eastern Anatolia,243,129,2025-02-18,Tue,4,2
248,00:30,4,,08:30,18:00,Turkey,MERSIN,TARSUS,ERGENEKON MAHALLESI FATIH SULTAN MEHMET BULVARI 31,36.929476,34.863841,Mediterranean,248,96,2025-02-17,Mon,4,1
251,00:30,4,,08:30,18:00,Turkey,Kocaeli,Gölcük,Merkez Mah.Atatürk Cad.No 33 Degırmendere ,40.718614,29.782565,Marmara,251,175,2025-02-21,Fri,4,1
253,00:30,4,,08:30,18:00,Turkey,DIYARBAKIR,KAYAPINAR,FIRAT MAHALLESI MEZOPOTAMYA BULVARI  1,37.927989,40.133852,Southeastern Anatolia,253,138,2025-02-19,Wed,4,1
260,00:30,4,,08:30,18:00,Turkey,Zonguldak,Eregli / Zonguldak,MÜFTÜ MAHALLESI UZUNKUM CADDESI MÜFTÜ MAHALLESI NO:13  13,41.274386,31.4261,Black Sea,260,90,2025-02-17,Mon,4,3
267,00:30,4,,08:30,18:00,Turkey,VAN,İPEKYOLU,ŞEREFIYE MAHALLESI ORDU CADDESI  40,38.500058,43.399548,Eastern Anatolia,267,129,2025-02-17,Mon,4,1
269,00:30,4,,08:30,18:00,Turkey,AFYONKARAHISAR,MERKEZ,AFYONKARAHISAR OSB 4. CADDE 3. SOKAK 2,38.755306,30.546326,Aegean,269,166,2025-02-20,Thu,4,1
274,00:30,4,,08:30,18:00,Turkey,ERZURUM,YAKUTIYE,KURTULUŞ MAHALLESI TORTUM YOLU CADDESI  194,39.951623,41.293424,Eastern Anatolia,274,67,2025-02-18,Tue,4,2
277,00:30,4,,08:30,18:00,Turkey,BURDUR,MERKEZ,ÖZGÜR MAHALLESI NAMAZGAH SOKAK ÖZGÜR MAHALLESI NO:4/A  4/A,37.721388,30.28714,Mediterranean,277,72,2025-02-18,Tue,4,1
278,00:30,4,,08:30,18:00,Turkey,ŞANLIURFA,HALILIYE,PAŞABAĞI MAHALLESI MEVLANA CADDESI 72,37.158719,38.813151,Southeastern Anatolia,278,177,2025-02-18,Tue,4,3
280,00:30,4,,08:30,18:00,Turkey,Zonguldak,Alapli,MERKEZ MAHALLESI HÜKÜMET CADDESI MERKEZ MAHALLESI NO:17  17,41.179919,31.38649,Black Sea,280,90,2025-02-17,Mon,4,4
281,00:30,1,,08:30,18:00,Turkey,ADANA,SEYHAN,GÜRSELPAŞA MAHALLESI ALI BOZDOĞANOĞLU BULVARI 27,37.026612,35.276536,Mediterranean,281,97,2025-02-17,Mon,1,1
284,00:30,4,,08:30,18:00,Turkey,RIZE,MERKEZ,PORTAKALLIK MAHALLESI MENDERES BULVARI  420/A,41.0309829711914,40.5537986755371,Black Sea,284,88,2025-02-21,Fri,4,5
292,00:30,4,,08:30,18:00,Turkey,GAZIANTEP,ŞAHINBEY,ONUR MAHALLESI 45. CADDESI 5,37.047029,37.36377,Southeastern Anatolia,292,176,2025-02-19,Wed,4,1
295,00:30,4,,08:30,18:00,Turkey,ESKIŞEHIR,TEPEBAŞI,BAHÇELIEVLER MAHALLESI SAKARYA-2 CADDESI 101,39.786143,30.519127,Central Anatolia,295,165,2025-02-19,Wed,4,2
300,00:30,4,,08:30,18:00,Turkey,İstanbul,Bağcılar,Sancaktepe Mah. Fatıh Cad. No:135 ,41.040311,28.857828,Marmara,300,189,2025-02-17,Mon,4,4
307,00:30,4,,08:30,18:00,Turkey,KARAMAN,MERKEZ,İMARET MAHALLESI ATATÜRK BULVARI İMARET MAHALLESI NO:2  2,37.181286,33.220648,Central Anatolia,307,86,2025-02-18,Tue,4,1
309,00:30,4,,08:30,18:00,Turkey,Sakarya,Adapazarı,SEMERCILER MAHALLESI KUDÜS CADDESI SEMERCILER MAHALLESI NO:50  50,40.773856,30.395526,Marmara,309,128,2025-02-19,Wed,4,1
310,00:30,4,,08:30,18:00,Turkey,VAN,İPEKYOLU,ŞEREFIYE MAHALLESI CUMHURIYET BULVARI  89/C,38.496822,43.394726,Eastern Anatolia,310,129,2025-02-19,Wed,4,1
311,00:30,1,,08:30,18:00,Turkey,MANISA,ŞEHZADELER,Şehzadeler SEYFETTIN BEY CADESI Şehzadeler NO:1  1,38.613898224938,27.4355728206748,Aegean,311,25,2025-02-25,Tue,1,2
315,00:30,4,,08:30,18:00,Turkey,SAMSUN,ATAKUM,ESENEVLER MAHALLESI 404.SOKAK  45295,41.26359,36.350327,Black Sea,315,78,2025-02-18,Tue,4,4
319,00:30,4,,08:30,18:00,Turkey,ŞANLIURFA,HALILIYE,SANCAKTAR MAHALLESI ŞÜTIM ŞIRECILER PAZARI 1,37.1559982299805,38.8107376098633,Southeastern Anatolia,319,177,2025-02-18,Tue,4,2
320,00:30,4,,08:30,18:00,Turkey,ŞANLIURFA,HALILIYE,PAŞABAĞI MAHALLESI MEVLANA CADDESI 1,37.1552810668945,38.809814453125,Southeastern Anatolia,320,177,2025-02-18,Tue,4,1
321,00:30,4,,08:30,18:00,Turkey,ISPARTA,MERKEZ,FATIH MAHALLESI 156 CADDESI FATIH MAHALLESI NO:45506  45506,37.783135,30.545249,Mediterranean,321,72,2025-02-20,Thu,4,1
325,00:30,4,,08:30,18:00,Turkey,VAN,EDREMIT,SÜPHAN MAH  NAZIM ÜSTÜNOVA SK VANGÖLÜ TO.SIT.H1 BLOK   164,38.4919662475585,43.4104957580566,Eastern Anatolia,325,129,2025-02-17,Mon,4,2
330,00:30,4,,08:30,18:00,Turkey,ADANA,YÜREĞIR,TAHSILLI MAHALLESI KOZAN CADDESI 327/A,37.000132,35.363662,Mediterranean,330,98,2025-02-17,Mon,4,1
331,00:30,4,,08:30,18:00,Turkey,KARAMAN,MERKEZ,TAHSIN ÜNAL MAHALLESI YUNUS EMRE CADDESI TAHSIN ÜNAL MAHALLESI NO:14  14,37.182395,33.219416,Central Anatolia,331,86,2025-02-20,Thu,4,2
332,00:30,4,,08:30,18:00,Turkey,BITLIS,MERKEZ,TAŞ MAHALLESI RECEP AĞA SOKAK  4,38.423022,42.124829,Eastern Anatolia,332,130,2025-02-19,Wed,4,1
334,00:30,1,,08:30,18:00,Turkey,MARDIN,KIZILTEPE,TEPEBAŞI MAHALLESI 608. SOKAK  13/A,37.189502,40.586983,Southeastern Anatolia,334,135,2025-03-01,Sat,1,4
337,00:30,4,,08:30,18:00,Turkey,DIYARBAKIR,KAYAPINAR,ORKÖY MAH URFA YOLU ORKÖY KAVŞAĞI ÜZERI  1,37.928469,40.174462,Southeastern Anatolia,337,138,2025-02-21,Fri,4,2
340,00:30,4,,08:30,18:00,Turkey,ADANA,SEYHAN,YEŞILYURT MAHALLESI AHMET SAPMAZ BULVARI 40/A,37.031801127324,35.299493294373,Mediterranean,340,97,2025-02-18,Tue,4,1
341,00:30,4,,08:30,18:00,Turkey,MERSIN,TOROSLAR,TOZKOPARAN MAHALLESI 207. CADDESI 147,36.820948,34.616616,Mediterranean,341,774,2025-02-19,Wed,4,2
343,00:30,4,,08:30,18:00,Turkey,ADANA,SEYHAN,UÇAK MAHALLESI ŞAKIRPAŞA CADDESI 101/A,36.987505,35.277282,Mediterranean,343,101,2025-02-17,Mon,4,1
354,00:30,4,,08:30,18:00,Turkey,GIRESUN,BULANCAK,İHSANIYE MAHALLESI UĞUR MUMCU CADDESI  14/B,40.938226,38.229974,Black Sea,354,83,2025-02-18,Tue,4,2
355,00:30,4,,08:30,18:00,Turkey,KONYA,SELÇUKLU,FERITPAŞA MAHALLESI ADNAN MENDERES CADDESI FERITPAŞA MAHALLESI NO:21  21,37.972716,32.509169,Central Anatolia,355,77,2025-02-19,Wed,4,1
356,00:30,4,,08:30,18:00,Turkey,ISPARTA,MERKEZ,YEDIŞEHITLER MAHALLESI GÖLCÜK CADDESI YEDIŞEHITLER MAHALLESI NO:106  106,37.769996,30.540994,Mediterranean,356,72,2025-02-19,Wed,4,2
357,00:30,4,,08:30,18:00,Turkey,Zonguldak,Merkez,MITHATPAŞA MAHALLESI ANKARA CADDESI MITHATPAŞA MAHALLESI NO:10  10,41.451322,31.79085,Black Sea,357,84,2025-02-22,Sat,4,2
358,00:30,4,,08:30,18:00,Turkey,ŞANLIURFA,VIRANŞEHIR,YENIŞEHIR MAHALLESI 3. CADDESI 8,37.2253913879395,39.7539024353027,Southeastern Anatolia,358,56,2025-02-21,Fri,4,1
360,00:30,1,,08:30,18:00,Turkey,BATMAN,MERKEZ,YENI MAHALLESI 16 CADDESI  12,37.911026,41.133698,Southeastern Anatolia,360,134,2025-02-24,Mon,1,3
361,00:30,4,,08:30,18:00,Turkey,Sakarya,Hendek,BAŞPINAR MAHALLESI BEŞTEPELER CADDESI BAŞPINAR MAHALLESI NO:1  1,40.793706,30.736064,Marmara,361,114,2025-02-18,Tue,4,1
363,00:30,4,,08:30,18:00,Turkey,ADANA,SEYHAN,YENIBEY MAHALLESI ÜMMÜ GÜLSÜM CAMI SOKAK 57,36.968168,35.325034,Mediterranean,363,99,2025-02-18,Tue,4,3
364,00:30,4,,08:30,18:00,Turkey,Sakarya,Serdivan,İSTIKLAL MAHALLESI ŞEHIT MEHMET KARABAŞOĞLU CADDESI  İSTIKLAL MAHALLESI NO:2/A  2/A,40.77175,30.362249,Marmara,364,115,2025-02-17,Mon,4,1
366,00:30,1,,08:30,18:00,Turkey,MARDIN,ARTUKLU,YENIŞEHIR MAHALLESI ERENLER CADDESI  31,37.320968,40.720924,Southeastern Anatolia,366,135,2025-02-26,Wed,1,6
367,00:30,4,,08:30,18:00,Turkey,Kocaeli,Derince,YENIKENT MAHALLESI GAZI MUSTAFA PAŞA CADDESI YENIKENT MAHALLESI NO:15  15,40.771727,29.810549,Marmara,367,174,2025-02-19,Wed,4,2
369,00:30,1,,08:30,18:00,Turkey,MARDIN,KIZILTEPE,YENİKENT MH MARDIN CADDESI  331/Z-5,37.2313194274902,40.6310844421386,Southeastern Anatolia,369,135,2025-02-25,Tue,1,4
380,00:30,4,,08:30,18:00,Turkey,MUŞ,MERKEZ,ZAFER MAHALLESI İSTASYON CADDESI  9/A,38.752121,41.505166,Eastern Anatolia,380,130,2025-02-18,Tue,4,3
389,00:30,4,,08:30,18:00,Turkey,Kocaeli,İzmit,28 HAZIRAN MAHALLESI TURAN GÜNEŞ CADDESI 28 HAZIRAN MAHALLESI NO:293/A  293/A,40.77272972,29.95217903,Marmara,389,122,2025-02-19,Wed,4,1
394,00:30,1,,08:30,18:00,Turkey,Balıkesir,Bandırma,600 EVLER MAHALLESI 1346. SOKAK 600 EVLER MAHALLESI NO:1  1,40.324702,28.004052,Marmara,394,11,2025-02-26,Wed,1,3
396,00:30,4,,08:30,18:00,Turkey,DIYARBAKIR,BAĞLAR,ALIPINAR MAHALLESI 22. SOKAK  1,37.9088341,40.2103633,Southeastern Anatolia,396,138,2025-02-17,Mon,4,1
398,00:30,4,,08:30,18:00,Turkey,ERZURUM,YAKUTIYE,ÖMER NASUHI BILMEN MAHALLESI ORHAN GAZI CADDESI  2,39.94818,41.300217,Eastern Anatolia,398,67,2025-02-18,Tue,4,1
400,00:30,4,,08:30,18:00,Turkey,Kocaeli,Kartepe,FATIH SULTAN MEHMET MAHALLESI SAPANCA YOLU CADDESI FATIH SULTAN MEHMET MAHALLESI NO:456/A  456/A,40.71736,30.115792,Marmara,400,123,2025-02-19,Wed,4,2
405,00:30,4,,08:30,18:00,Turkey,YOZGAT,SORGUN,AHMETEFENDI MAHALLESI 3001. SOKAK  1,39.8133853,35.1778516,Central Anatolia,405,102,2025-02-18,Tue,4,5
422,00:30,4,,08:30,18:00,Turkey,Kocaeli,Gölcük,ÖMERAĞA MAHALLESI ABDURRAHMAN YÜKSEL CADDESI ÖMERAĞA MAHALLESI NO:52  52,40.765316,29.928847,Marmara,422,122,2025-02-18,Tue,4,2
423,00:30,4,,08:30,18:00,Turkey,Kocaeli,İzmit,ALIKAHYA MERKEZ MAHALLESI SAKIP SABANCI BULVARI ALIKAHYA MERKEZ MAHALLESI NO:4/D  4/D,40.77073754,30.00446201,Marmara,423,123,2025-02-18,Tue,4,1
425,00:30,4,,08:30,18:00,Turkey,VAN,TUŞBA,ALTINTEPE MAHALLESI İSKELE CADDESI  1,38.50175,43.382843,Eastern Anatolia,425,129,2025-02-19,Wed,4,2
426,00:30,4,,08:30,18:00,Turkey,İstanbul,Arnavutköy,Anadolu Mah. M.Sınan Cad. No:69 ,41.188235,28.748995,Marmara,426,1319,2025-03-11,Tue,4,7
432,00:30,4,,08:30,18:00,Turkey,ERZINCAN,MERKEZ,ARSLANLI MAHALLESI MILLI EGEMENLIK BULVARI  23,39.759787,39.482887,Eastern Anatolia,432,136,2025-02-18,Tue,4,1
437,00:30,4,,08:30,18:00,Turkey,Kocaeli,Kartepe,ATAEVLER MAHALLESI İSMET PAŞA CADDESI ATAEVLER MAHALLESI NO:45320  45320,40.741354,30.047115,Marmara,437,123,2025-02-21,Fri,4,1
438,00:30,4,,08:30,18:00,Turkey,Kocaeli,Kartepe,ÇAMLIK MAHALLESI SAPANCA YOLU CADDESI ÇAMLIK MAHALLESI NO:66/A  66/A,40.739999,30.051719,Marmara,438,123,2025-02-19,Wed,4,1
441,00:30,4,,08:30,18:00,Turkey,KAYSERI,KOCASINAN,GEVHERNESIBE MAHALLESI ATATÜRK BULVARI  8/A,38.721534,35.482472,Central Anatolia,441,95,2025-02-17,Mon,4,4
442,00:30,4,,08:30,18:00,Turkey,KAYSERI,KOCASINAN,GEVHERNESIBE MAHALLESI ATATÜRK BULVARI  6,38.721207,35.482464,Central Anatolia,442,95,2025-02-18,Tue,4,3
451,00:30,4,,08:30,18:00,Turkey,KONYA,SELÇUKLU,AYDINLIKEVLER MAHALLESI ZIYA ÜLHAK CADDESI AYDINLIKEVLER MAHALLESI NO:3/B-1  3/B-1,37.90832,32.494641,Central Anatolia,451,93,2025-02-19,Wed,4,2
473,00:30,4,,08:30,18:00,Turkey,VAN,İPEKYOLU,VALI MITHAT BEY MAHALLESI DEFTERDARLIK CADDESI  1,38.504885,43.395335,Eastern Anatolia,473,129,2025-02-18,Tue,4,1
474,00:30,4,,08:30,18:00,Turkey,GAZIANTEP,ŞAHINBEY,BEYAZLAR MAHALLESI SAMLI HACI ÖKKEŞ CADDESI 80,37.052414,37.352969,Southeastern Anatolia,474,176,2025-02-22,Sat,4,5
478,00:30,4,,08:30,18:00,Turkey,BITLIS,TATVAN,TUĞ MAHALLESI CUMHURIYET CADDESI  320,38.491187,42.289206,Eastern Anatolia,478,130,2025-02-17,Mon,4,1
481,00:30,4,,08:30,18:00,Turkey,Düzce,Merkez,BURHANIYE MAHALLESI ATATÜRK BULVARI BURHANIYE MAHALLESI NO:54  54,40.842936,31.163762,Black Sea,481,153,2025-02-19,Wed,4,2
482,00:30,1,,08:30,18:00,Turkey,Bursa,İnegöl,BURHANIYE MAHALLESI KEMER SOKAK BURHANIYE MAHALLESI NO:22  22,40.08247,29.511195,Marmara,482,24,2025-02-25,Tue,1,4
490,00:30,1,,08:30,18:00,Turkey,AYDIN,KÖŞK,ÇARŞI MAHALLESI GAZI MUSTAFA KEMAL CADDESI ÇARŞI MAHALLESI NO:30/A  30/A,37.8541946411133,28.0528221130371,Aegean,490,33,2025-02-24,Mon,1,2
492,00:30,4,,08:30,18:00,Turkey,OSMANIYE,KADIRLI,CEMALPAŞA MAHALLESI KAMIL KARA BULVARI 195/A,37.363813,36.07869,Mediterranean,492,140,2025-02-17,Mon,4,1
494,00:30,4,,08:30,18:00,Turkey,ANKARA,MAMAK,CENGIZHAN MAHALLESI SULTAN FATIH CADDESI 24,39.894282,32.930808,Central Anatolia,494,146,2025-02-19,Wed,4,3
506,00:30,4,,08:30,18:00,Turkey,MUĞLA,YATAĞAN,YENI MAHALLESI ATATÜRK CADDESI YENI MAHALLESI NO:138/A  138/A,37.343724,28.150016,Aegean,506,3137,2025-02-19,Wed,4,1
511,00:30,1,,08:30,18:00,Turkey,İZMIR,BUCA,UFUK MAHALLESI FEVZI ÇAKMAK CADDESI UFUK MAHALLESI NO:179  179,38.403203,27.164086,Aegean,511,16,2025-02-24,Mon,1,5
519,00:30,4,,08:30,18:00,Turkey,Bartın,Merkez,ÇAYDÜZÜ MAHALLESI KAZIM KARABEKIR CADDESI ÇAYDÜZÜ MAHALLESI NO:16  16,41.623509,32.361564,Black Sea,519,90,2025-02-18,Tue,4,3
526,00:30,4,,08:30,18:00,Turkey,ISPARTA,MERKEZ,DAVRAZ MAHALLESI FIRDEVS CADDESI DAVRAZ MAHALLESI NO:28  28,37.76875,30.567234,Mediterranean,526,72,2025-02-19,Wed,4,1
527,00:30,4,,08:30,18:00,Turkey,Sakarya,Akyazı,ÖMERCIKLER MAHALLESI  BATAKKÖY CAD. ÖMERCIKLER MAHALLESI NO:12  12,40.681416,30.623083,Marmara,527,114,2025-02-18,Tue,4,2
531,00:30,4,,08:30,18:00,Turkey,Kocaeli,Kartepe,KÖRFEZ MAHALLESI BAŞAKLI SOKAK KÖRFEZ MAHALLESI NO:23  23,40.706446,30.104162,Marmara,531,123,2025-02-19,Wed,4,3
536,00:30,4,,08:30,18:00,Turkey,Kocaeli,Derince,DOĞAN MAHALLESI HASAN ATAKAN CADDESI DOĞAN MAHALLESI NO:26/A  26/A,40.765626,29.877558,Marmara,536,174,2025-02-17,Mon,4,1
539,00:30,4,,08:30,18:00,Turkey,Yalova,Altınova,YALOVA İZMIT YOLU MERKEZ MAHALLESI (KAYTAZDERE BLD.) NO:10 ,40.695907,29.528276,Marmara,539,175,2025-02-18,Tue,4,9
546,00:30,4,,08:30,18:00,Turkey,VAN,ERCIŞ,SALIHIYE MAHALLESI EMNIYET CADDESI  38,39.028387,43.36057,Eastern Anatolia,546,129,2025-02-21,Fri,4,2
548,00:30,4,,08:30,18:00,Turkey,Kocaeli,İzmit,ERENLER MAHALLESI DEVE BAĞIRTAN SOKAK ERENLER MAHALLESI NO:46  46,40.775723,29.941614,Marmara,548,122,2025-02-18,Tue,4,1
556,00:30,4,,08:30,18:00,Turkey,Kocaeli,Körfez,ESENTEPE MAHALLESI AĞADERE CADDESI ESENTEPE MAHALLESI NO:64/B  64/B,40.76644279,29.79033842,Marmara,556,174,2025-02-18,Tue,4,7
569,00:30,4,,08:30,18:00,Turkey,Kocaeli,Kartepe,FATIH SULTAN MEHMET MAHALLESI DEMOKRASI CADDESI FATIH SULTAN MEHMET MAHALLESI NO:35/A  35/A,40.74002826,30.01708869,Marmara,569,123,2025-02-17,Mon,4,4
577,00:30,1,,08:30,18:00,Turkey,BATMAN,MERKEZ,GAP MAHALLESI 2503 SOKAK  6,37.8974795641419,41.1320910986327,Southeastern Anatolia,577,134,2025-02-26,Wed,1,6
580,00:30,4,,08:30,18:00,Turkey,GAZIANTEP,ŞEHITKAMIL,GAZIKENT MAHALLESI 17. CADDESI 1,37.091002,37.432433,Southeastern Anatolia,580,141,2025-02-21,Fri,4,2
582,00:30,4,,08:30,18:00,Turkey,Zonguldak,Zonguldak Merkez,MEŞRUTIYET MAHALLESI PTT SOKAK MEŞRUTIYET MAHALLESI NO:45297  45297,41.45430374,31.78882599,Black Sea,582,90,2025-02-17,Mon,4,2
586,00:30,4,,08:30,18:00,Turkey,KAYSERI,KOCASINAN,GEVHERNESIBE MAHALLESI ATATÜRK BULVARI  10/A,38.7214872517628,35.482353977859,Central Anatolia,586,95,2025-02-17,Mon,4,3
615,00:30,4,,08:30,18:00,Turkey,İstanbul,Kağıthane,Hamidiye Mh. Serdar Sk. No:19 Kagithane ,41.093925,28.972102,Marmara,615,37,2025-02-21,Fri,4,3
619,00:30,4,,08:30,18:00,Turkey,Van,Edremit,Urfa Yolu   HAVA ALANI LOJMANLARI C4 BLOK. VAN  1,38.464041,43.340684,Eastern Anatolia,619,133,2025-02-20,Thu,4,2
621,00:30,1,,08:30,18:00,Turkey,BATMAN,MERKEZ,GAP  MAHALLESI Atatürk Bulvarı  102/104,37.9041637718694,41.1319246994551,Southeastern Anatolia,621,134,2025-02-25,Tue,1,3
624,00:30,4,,08:30,18:00,Turkey,Zonguldak,Çaycuma,SALTUKOVA BLD. HÜRRIYET CADDESI SALTUKOVA BLD. NO:75  75,41.519765,32.094488,Black Sea,624,90,2025-02-19,Wed,4,2
628,00:30,4,,08:30,18:00,Turkey,MUŞ,MERKEZ,HÜRRIYET MAHALLESI ATATÜRK BULVARI  95/A,38.741177,41.496563,Eastern Anatolia,628,130,2025-02-20,Thu,4,4
630,00:30,4,,08:30,18:00,Turkey,BITLIS,MERKEZ,HÜSREV PAŞA MAHALLESI SELAHATTIN EYYÜBI CADDESI  1,38.4228508,42.1251895,Eastern Anatolia,630,130,2025-02-19,Wed,4,2
635,00:30,4,,08:30,18:00,Turkey,KAYSERI,DEVELI,İBRAHIMAĞA MAHALLESI TEKIR CADDESI  8,38.387903,35.489936,Central Anatolia,635,94,2025-02-17,Mon,4,8
638,00:30,1,,08:30,18:00,Turkey,MARDIN,KIZILTEPE,İPEK MAHALLESI ALI ERTAŞ CADDESI  82,37.185014,40.582904,Southeastern Anatolia,638,135,2025-03-01,Sat,1,3
644,00:30,1,,08:30,18:00,Turkey,Yalova,Yalova,ADNAN MENDERES MAHALLESI RAHMI ÜSTEL CADDESI ADNAN MENDERES MAHALLESI NO:39  39,40.647006,29.260319,Marmara,644,3,2025-02-24,Mon,1,2
651,00:30,4,,08:30,18:00,Turkey,Kocaeli,Gölcük,İPEK YOLU MAHALLESI 639. SOKAK İPEK YOLU MAHALLESI NO:1-A  1-A,40.7053317,29.83503173,Marmara,651,175,2025-02-19,Wed,4,8
664,00:30,4,,08:30,18:00,Turkey,KONYA,MERAM,ALPASLAN MAHALLESI KARAMAN CADDESI ALPASLAN MAHALLESI NO:380  380,37.835741,32.513976,Central Anatolia,664,76,2025-02-18,Tue,4,2
665,00:30,1,,08:30,18:00,Turkey,Balıkesir,Karesi,MALTEPE MAHALLESI BAĞLAR SOKAK MALTEPE MAHALLESI NO:244/A  244/A,39.665223,27.882283,Marmara,665,8,2025-02-28,Fri,1,3
667,00:30,4,,08:30,18:00,Turkey,İstanbul,Gaziosmanpaşa,Karlıtepe Mah. Ordu Cd.No:228 Gazıosmanpasa ,41.05879,28.928457,Marmara,667,198,2025-03-11,Tue,4,7
674,00:30,4,,08:30,18:00,Turkey,KAYSERI,YAHYALI,SEYDILI MAHALLESI ATATÜRK BULVARI  57,38.101413,35.359036,Central Anatolia,674,94,2025-02-17,Mon,4,9
679,00:30,1,,08:30,18:00,Turkey,Balıkesir,Gömeç,MITHATPAŞA MAHALLESI ATATÜRK CADDESI MITHATPAŞA MAHALLESI NO:55  55,39.3888588,26.84056282,Marmara,679,7,2025-03-07,Fri,1,2
682,00:30,4,,08:30,18:00,Turkey,Zonguldak,Ereğli,KEPEZ MAHALLESI PROF. DR. MUAMMER AKSOY CADDESI KEPEZ MAHALLESI NO:237  237,41.26665115,31.48150635,Black Sea,682,90,2025-02-17,Mon,4,6
684,00:30,1,,08:30,18:00,Turkey,MANISA,KIRKAĞAÇ,KOCAMEHMETAĞA MAHALLESI İSMAIL HAKKI CADDESI KOCAMEHMETAĞA MAHALLESI NO: 34-   34-,39.105578,27.671106,Aegean,684,25,2025-02-26,Wed,1,4
685,00:30,4,,08:30,18:00,Turkey,Sakarya,Sapanca,ERSIN CADDESI RÜSTEMPAŞA MAHALLESI NO:47/1-2-3-4-5-6-7 ,40.69377385,30.2655465,Marmara,685,114,2025-02-17,Mon,4,3
696,00:30,4,,08:30,18:00,Turkey,Düzce,Düzce Merkez,KÖRPEŞLER MAHALLESI HÜRRIYET CADDESI KÖRPEŞLER MAHALLESI NO:48  48,40.854174,31.155165,Black Sea,696,153,2025-02-21,Fri,4,1
702,00:30,1,,08:30,18:00,Turkey,Balıkesir,Gönen,KURTULUŞ MAHALLESI KIZILAY CADDESI KURTULUŞ MAHALLESI NO:34  34,40.110532,27.657165,Marmara,702,11,2025-02-25,Tue,1,5
706,00:30,4,,08:30,18:00,Turkey,MUŞ,VARTO,KÜLTÜR MAHALLESI CUMHURIYET CADDESI  53,38.734863,41.495524,Eastern Anatolia,706,130,2025-02-20,Thu,4,2
714,00:30,4,,08:30,18:00,Turkey,ADANA,SARIÇAM,MEHMET AKIF ERSOY MAHALLESI KOZAN CADDESI 264/A,37.016372,35.386709,Mediterranean,714,98,2025-02-19,Wed,4,3
715,00:30,4,,08:30,18:00,Turkey,Kocaeli,İzmit,M. ALIPAŞA MAHALLESI BAĞDAT CADDESI M. ALIPAŞA MAHALLESI NO:1  1,40.767357,29.952767,Marmara,715,122,2025-02-18,Tue,4,3
722,00:30,4,,08:30,18:00,Turkey,İstanbul,Küçükçekmece,Mehmet Akıf Mh.K.Pasa Cd.Türkmen Sk.No:34/Ikıtellı ,41.05609803,28.80168912,Marmara,722,1315,2025-03-11,Tue,4,3
730,00:30,4,,08:30,18:00,Turkey,İstanbul,Esenyurt,Merkez Mah. Baglarçesme Cad. No:1 ,41.034273,28.677106,Marmara,730,201,2025-03-12,Wed,4,5
732,00:30,4,,08:30,18:00,Turkey,ANTALYA,ALANYA,AVSALLAR MAHALLESI HATIP SOKAK AVSALLAR MAHALLESI NO:13  13,36.6214408874512,31.7726860046387,Mediterranean,732,74,2025-02-21,Fri,4,1
734,00:30,4,,08:30,18:00,Turkey,Kocaeli,Gölcük,MERKEZ MAHALLESI PREVEZE CADDESI MERKEZ MAHALLESI NO:69  69,40.717471,29.823538,Marmara,734,175,2025-02-19,Wed,4,1
742,00:30,4,,08:30,18:00,Turkey,Kocaeli,Körfez,MIMAR SINAN MAHALLESI MEHMET AKIF ERSOY CADDESI MIMAR SINAN MAHALLESI NO:136  136,40.769798,29.753812,Marmara,742,174,2025-02-18,Tue,4,1
746,00:30,4,,08:30,18:00,Turkey,Edirne,Merkez,Muammer Aksoy Cad.Emlak Dük.3/4 Edırne /Merkez/Edırne ,41.65342,26.595729,Marmara,746,1301,2025-03-10,Mon,4,4
752,00:30,1,,08:30,18:00,Turkey,MANISA,SOMA,NAMAZGAH MAHALLESI ADALET CADDESI NAMAZGAH MAHALLESI NO:24/A  24/A,39.183133,27.601281,Aegean,752,25,2025-02-26,Wed,1,6
764,00:30,4,,08:30,18:00,Turkey,NIĞDE,MERKEZ,ŞAHINALI MAHALLESI ESIN ERIŞINGI CADDESI  27/D,37.971502,34.683197,Central Anatolia,764,178,2025-02-20,Thu,4,7
765,00:30,1,,08:30,18:00,Turkey,Bursa,Nilüfer,BALAT MAHALLESI 5. SOKAK BALAT MAHALLESI NO:1  1,40.254702,28.952846,Marmara,765,6,2025-02-26,Wed,1,4
769,00:30,4,,08:30,18:00,Turkey,KAYSERI,MELIKGAZI,OSMANLI MAHALLESI EDIP ÇIKMAZI  5,38.6898090469391,35.4750590398907,Central Anatolia,769,94,2025-02-17,Mon,4,2
779,00:30,4,,08:30,18:00,Turkey,Diyarbakır,Merkez,PEYAS MAH.  FIRAT BULV. FURKAN 19 APT  150,37.933038,40.162127,Southeastern Anatolia,779,137,2025-02-22,Sat,4,2
782,00:30,4,,08:30,18:00,Turkey,KONYA,EREĞLI,PIRÖMER MAHALLESI HACI NEBI SK PIRÖMER MAHALLESI NO:15  15,37.51371,34.046113,Central Anatolia,782,86,2025-02-17,Mon,4,1
786,00:30,4,,08:30,18:00,Turkey,RIZE,MERKEZ,PIRIÇELEBI MAHALLESI ATATÜRK CADDESI  312,41.026348,40.51489,Black Sea,786,88,2025-02-18,Tue,4,5
789,00:30,4,,08:30,18:00,Turkey,Sakarya,Hendek,BAŞPINAR MAHALLESI MUAMMER SENCER CADDESI BAŞPINAR MAHALLESI NO:28  28,40.796983,30.74302,Marmara,789,114,2025-02-21,Fri,4,1
790,00:30,4,,08:30,18:00,Turkey,Bolu,Bolu Merkez,SAĞLIK MAHALLESI KARADERE CADDESI SAĞLIK MAHALLESI NO:25  25,40.741485,31.617103,Black Sea,790,113,2025-02-18,Tue,4,4
792,00:30,4,,08:30,18:00,Turkey,GAZIANTEP,ŞAHINBEY,ŞAHINTEPE MAHALLESI 133394. CADDESI 3/A,37.019038,37.339248,Southeastern Anatolia,792,176,2025-02-18,Tue,4,4
796,00:30,4,,08:30,18:00,Turkey,Kocaeli,İzmit,SANAYI MAHALLESI KARAYOLU CADDESI SANAYI MAHALLESI NO:300  300,40.7572963,29.9630226,Marmara,796,122,2025-02-18,Tue,4,6
798,00:30,4,,08:30,18:00,Turkey,KAHRAMANMARAŞ,ONIKIŞUBAT,ŞAZI BEY MAHALLESI ORHAN SEZAL BULVARI 27,37.564808,36.919525,Mediterranean,798,159,2025-02-17,Mon,4,3
799,00:30,4,,08:30,18:00,Turkey,KAHRAMANMARAŞ,ONIKIŞUBAT,ŞAZI BEY MAHALLESI ORHAN SEZAL BULVARI 2,37.564735,36.916813,Mediterranean,799,159,2025-02-17,Mon,4,2
800,00:30,1,,08:30,18:00,Turkey,Yalova,Yalova,SÜLEYMAN BEY MAHALLESI SEFABEY CADDESI SÜLEYMAN BEY MAHALLESI NO:7/A  7/A,40.657157,29.273852,Marmara,800,3,2025-02-28,Fri,1,4
809,00:30,4,,08:30,18:00,Turkey,Kocaeli,Başiskele,SERDAR MAHALLESI PASINLER CADDESI SERDAR MAHALLESI NO:18/!  18/!,40.709804,29.942799,Marmara,809,175,2025-02-17,Mon,4,1
826,00:30,4,,08:30,18:00,Turkey,ADANA,SEYHAN,SÜMER MAHALLESI İBO OSMAN CADDESI 6/A,37.010822,35.315235,Mediterranean,826,101,2025-02-18,Tue,4,4
828,00:30,1,,08:30,18:00,Turkey,MANISA,KIRKAĞAÇ,ŞAIR EŞREF MAHALLESI 82. SOKAK ŞAIR EŞREF MAHALLESI NO:47/A  47/A,39.1062822507038,27.6778843546747,Aegean,828,25,2025-02-26,Wed,1,3
834,00:30,4,,08:30,18:00,Turkey,AKSARAY,MERKEZ,TAŞPAZAR MAHALLESI 855. SOKAK TAŞPAZAR MAHALLESI NO:45308  45308,38.367586,34.006995,Central Anatolia,834,76,2025-02-17,Mon,4,1
844,00:30,4,,08:30,18:00,Turkey,BITLIS,TATVAN,TUĞ MAHALLESI CUMHURIYET CADDESI  320,38.4897308349609,42.2907905578613,Eastern Anatolia,844,130,2025-02-21,Fri,4,3
846,00:30,4,,08:30,18:00,Turkey,Kocaeli,İzmit,YEŞILOVA MAHALLESI TURAN GÜNEŞ CADDESI YEŞILOVA MAHALLESI NO:446  446,40.787123,29.971717,Marmara,846,122,2025-02-18,Tue,4,4
865,00:30,4,,08:30,18:00,Turkey,ADANA,YÜREĞIR,YAVUZLAR MAHALLESI ORHAN KEMAL BULVARI 213/B,37.002029,35.34426,Mediterranean,865,98,2025-02-19,Wed,4,1
875,00:30,4,,08:30,18:00,Turkey,Karabük,Safranbolu,YENIMAHALLE MAHALLESI SADRI ARTUNÇ CADDESI YENIMAHALLE MAHALLESI NO:27  27,41.251448,32.680901,Black Sea,875,91,2025-02-18,Tue,4,2
876,00:30,4,,08:30,18:00,Turkey,Düzce,Merkez,YENI MAHALLESI TÜFEK SOKAK YENI MAHALLESI NO:44/E  44/E,40.851141,31.154743,Black Sea,876,153,2025-02-21,Fri,4,2
881,00:30,1,,08:30,18:00,Turkey,Bursa,Osmangazi,YENIBAĞLAR MAHALLESI YAKUT SOKAK YENIBAĞLAR MAHALLESI NO:3  3,40.255976,28.970498,Marmara,881,6,2025-02-26,Wed,1,5
888,00:30,4,,08:30,18:00,Turkey,KAYSERI,KOCASINAN,YENIPERVANE MAHALLESI 4. CADDESI  59/A,38.743748,35.507205,Central Anatolia,888,69,2025-02-18,Tue,4,4
890,00:30,4,,08:30,18:00,Turkey,Kocaeli,Körfez,YENIYALI MAHALLESI BELEN CADDESI YENIYALI MAHALLESI NO:24  24,40.766029,29.782999,Marmara,890,174,2025-02-17,Mon,4,5
895,00:30,4,,08:30,18:00,Turkey,İstanbul,Gaziosmanpaşa,Yeni Mh. Hekimsuyu Cd. No:13 Gaziosmanpasa ,41.073936,28.90455,Marmara,895,198,2025-03-12,Wed,4,7
919,00:30,1,,08:30,18:00,Turkey,MANISA,SOMA,TURGUTALP MAHALLESI AKHISAR BERGAMA YOLU TURGUTALP MAHALLESI NO:178  178,39.187806,27.567219,Aegean,919,25,2025-02-26,Wed,1,7
923,00:30,4,,08:30,18:00,Turkey,MALATYA,BATTALGAZI,ASLANBEY MAHALLESI NIYAZI SOKAK  14/B,38.3486917171165,38.305737299732,Eastern Anatolia,923,70,2025-02-19,Wed,4,3
935,00:30,1,,08:30,18:00,Turkey,İZMIR,KARABAĞLAR,YUNUS EMRE MAHALLESI 4240. SOKAK YUNUS EMRE MAHALLESI NO:18/A  18/A,38.370901,27.121248,Aegean,935,30,2025-02-26,Wed,1,3
958,00:30,4,,08:30,18:00,Turkey,KARAMAN,MERKEZ,AHIOSMAN MAHALLESI 35. SOKAK AHIOSMAN MAHALLESI NO:9  9,37.184627,33.217104,Central Anatolia,958,86,2025-02-20,Thu,4,1
981,00:30,4,,08:30,18:00,Turkey,KAYSERI,KOCASINAN,ALSANCAK MAHALLESI 5. SOKAK  29,38.740856,35.507451,Central Anatolia,981,69,2025-02-20,Thu,4,4
997,00:30,4,,08:30,18:00,Turkey,KIRŞEHIR,MERKEZ,AŞIKPAŞA MAHALLESI AŞIK PAŞA BULVARI  1,39.148081,34.1648,Central Anatolia,997,102,2025-02-20,Thu,4,5
1000,00:30,4,,08:30,18:00,Turkey,NIĞDE,MERKEZ,AŞAĞI KAYABAŞI MAHALLESI DR. SAMI YAĞIZ CADDESI  72/A,37.963213,34.668603,Central Anatolia,1000,178,2025-02-18,Tue,4,4
1031,00:30,4,,08:30,18:00,Turkey,İstanbul,Sarıyer,Ayazaga Mh. Dereboyu Cd. No:40-42 Sariyer ,41.16911,29.056152,Marmara,1031,1309,2025-02-21,Fri,4,5
1054,00:30,4,,08:30,18:00,Turkey,Kastamonu,Tosya,İBNI SELIM MAHALLESI F. ÇAKMAK SOKAK İBNI SELIM MAHALLESI NO:1  1,41.016806,34.036465,Black Sea,1054,91,2025-02-22,Sat,4,1
1065,00:30,4,,08:30,18:00,Turkey,BITLIS,MERKEZ,ZEYDAN MAHALLESI KAZIM DIRIK CADDESI  1,38.400096,42.107951,Eastern Anatolia,1065,130,2025-02-19,Wed,4,3
1079,00:30,4,,08:30,18:00,Turkey,TOKAT,MERKEZ,SOĞUKPINAR MAHALLESI BEHZAT BULVARI  236/A,40.309825,36.553689,Black Sea,1079,68,2025-02-22,Sat,4,4
1086,00:30,4,,08:30,18:00,Turkey,Düzce,Merkez,BEYCILER MAHALLESI 1596. SOKAK BEYCILER MAHALLESI NO:12/A-12/B  12/A-12/B,40.85537998,31.16786789,Black Sea,1086,153,2025-02-18,Tue,4,1
1104,00:30,1,,08:30,18:00,Turkey,İstanbul,Şişli,Büyükdere Cd.No:20 ,41.062125,28.989281,Marmara,1104,1318,2025-03-03,Mon,1,4
1117,00:30,4,,08:30,18:00,Turkey,MALATYA,YEŞILYURT,CEVATPAŞA MAHALLESI TURGUT ÖZAL BULVARI  88,38.33919,38.244623,Eastern Anatolia,1117,70,2025-02-22,Sat,4,4
1123,00:30,1,,08:30,18:00,Turkey,MANISA,SOMA,CUMA MAHALLESI ÇANDARLI CADDESI CUMA MAHALLESI NO:2/B  2/B,39.180242,27.611445,Aegean,1123,25,2025-02-26,Wed,1,5
1152,00:30,1,,08:30,18:00,Turkey,MARDIN,KIZILTEPE,CUMHURIYET MAHALLESI MARDIN CADDESI  134/A,37.198559,40.600155,Southeastern Anatolia,1152,135,2025-03-01,Sat,1,6
1171,00:30,1,,08:30,18:00,Turkey,BATMAN,MERKEZ,ŞAFAK MAHALLESI AHMET ARIF BULVARI  57,37.8868103027343,41.1361083984375,Southeastern Anatolia,1171,134,2025-02-28,Fri,1,1
1179,00:30,4,,08:30,18:00,Turkey,Bartın,Bartin Merkez,ÇAYDÜZÜ MAHALLESI 445. SOKAK ÇAYDÜZÜ MAHALLESI NO:6/A  6/A,41.623845,32.359982,Black Sea,1179,90,2025-02-18,Tue,4,1
1217,00:30,1,,08:30,18:00,Turkey,İZMIR,BORNOVA,DOĞANLAR MAHALLESI 1491. SOKAK DOĞANLAR MAHALLESI NO:89/A  89/A,38.4501114867472,27.2497246082256,Aegean,1217,34,2025-03-01,Sat,1,5
1220,00:30,1,,08:30,18:00,Turkey,İZMIR,KONAK,DUATEPE MAHALLESI 607. SOKAK DUATEPE MAHALLESI NO:2  2,38.4080476810851,27.1358458623222,Aegean,1220,16,2025-02-24,Mon,1,3
1225,00:30,4,,08:30,18:00,Turkey,KAYSERI,TALAS,MEVLANA MAHALLESI 15 TEMMUZ CADDESI  1,38.707516,35.563745,Central Anatolia,1225,94,2025-02-22,Sat,4,7
1230,00:30,1,,08:30,18:00,Turkey,MANISA,AKHISAR,EFENDI MAHALLESI 61. SOKAK EFENDI MAHALLESI NO:4/A  4/A,38.9253276228061,27.8454491260337,Aegean,1230,25,2025-02-24,Mon,1,2
1237,00:30,4,,08:30,18:00,Turkey,ŞANLIURFA,VIRANŞEHIR,EMIROĞLU MAHALLESI DEMIRCI YOLU 54,37.2324752807617,39.7712440490723,Southeastern Anatolia,1237,56,2025-02-21,Fri,4,2
1241,00:30,4,,08:30,18:00,Turkey,VAN,TUŞBA,ABDURRAHMAN GAZI MAHALLESI İPEK YOLU CADDESI  2,38.514917,43.373624,Eastern Anatolia,1241,133,2025-02-19,Wed,4,1
1244,00:30,1,,08:30,18:00,Turkey,İZMIR,TORBALI,ERTUĞRUL MAHALLESI TORBALI CADDESI ERTUĞRUL MAHALLESI NO:12/A  12/A,38.156147,27.361221,Aegean,1244,22,2025-02-28,Fri,1,1
1278,00:30,4,,08:30,18:00,Turkey,Düzce,Düzce Merkez,FEVZI ÇAKMAK MAHALLESI ESKI BOLU CADDESI FEVZI ÇAKMAK MAHALLESI NO:195  195,40.8280716,31.1861016,Black Sea,1278,153,2025-02-19,Wed,4,1
1281,00:30,4,,08:30,18:00,Turkey,KONYA,KARATAY,FEVZIÇAKMAK MAHALLESI KARAKAYIŞ CADDESI FEVZIÇAKMAK MAHALLESI NO:247  247,37.905647,32.523138,Central Anatolia,1281,93,2025-02-19,Wed,4,1
1295,00:30,4,,08:30,18:00,Turkey,KAYSERI,MELIKGAZI,BAHÇELI MAHALLESI GEZI CADDESI  50/A,38.778496,35.584245,Central Anatolia,1295,69,2025-02-18,Tue,4,3
1297,00:30,4,,08:30,18:00,Turkey,TRABZON,ORTAHISAR,GAZIPAŞA MAHALLESI YAVUZ SELIM BULVARI  45300,41.004388,39.727716,Black Sea,1297,81,2025-02-17,Mon,4,4
1308,00:30,4,,08:30,18:00,Turkey,KAYSERI,MELIKGAZI,GESI CUMHURIYET MAHALLESI GESI CADDESI  20,38.783377,35.613203,Central Anatolia,1308,69,2025-02-22,Sat,4,4
1314,00:30,1,,08:30,18:00,Turkey,BATMAN,MERKEZ,GÜLTEPE MAHALLESI EFLATUN CADDESI  29/AA,37.915535,41.133926,Southeastern Anatolia,1314,134,2025-02-24,Mon,1,2
1320,00:30,4,,08:30,18:00,Turkey,TOKAT,TURHAL,HAMAM MAHALLESI ATATÜRK CADDESI  14,40.385834,36.089313,Black Sea,1320,68,2025-02-19,Wed,4,5
1323,00:30,4,,08:30,18:00,Turkey,ADANA,YÜREĞIR,LEVENT MAHALLESI LEVENT CADDESI 165,36.9773803258534,35.3839356521536,Mediterranean,1323,99,2025-02-19,Wed,4,1
1333,00:30,4,,08:30,18:00,Turkey,NEVŞEHIR,MERKEZ,GÜZELYURT MAHALLESI ÜRGÜP CADDESI  65/A,38.631256,34.740794,Central Anatolia,1333,178,2025-02-21,Fri,4,4
1334,00:30,4,,08:30,18:00,Turkey,NEVŞEHIR,MERKEZ,GÜZELYURT MAHALLESI ZÜBEYDE HANIM CADDESI  92/Z1,38.6445541381835,34.7317695617675,Central Anatolia,1334,178,2025-02-21,Fri,4,3
1342,00:30,4,,08:30,18:00,Turkey,KONYA,BEYŞEHIR,HACI ARMAĞAN MAHALLESI CUMA CAMI SOKAK HACI ARMAĞAN MAHALLESI NO:26/A  26/A,37.677337,31.72332,Central Anatolia,1342,76,2025-02-18,Tue,4,3
1359,00:30,4,,08:30,18:00,Turkey,ŞANLIURFA,SIVEREK,HAMIDIYE MAHALLESI ŞEYH LÜTFÜ CADDESI 22/A,37.7487552123645,39.3166890444529,Southeastern Anatolia,1359,56,2025-02-19,Wed,4,1
1376,00:30,1,,08:30,18:00,Turkey,MANISA,AKHISAR,HÜRRIYET MAHALLESI 224. SOKAK HÜRRIYET MAHALLESI NO:72  72,38.913288,27.831535,Aegean,1376,25,2025-02-26,Wed,1,1
1402,00:30,4,,08:30,18:00,Turkey,NIĞDE,BOR,DINK MAHALLESI İSTASYON CADDESI  33/A,37.888077,34.562374,Central Anatolia,1402,178,2025-02-18,Tue,4,5
1414,00:30,4,,08:30,18:00,Turkey,Sakarya,Akyazı,HASTAHANE MAHALLESI KÜÇÜCEK CADDESI HASTAHANE MAHALLESI NO:60/A  60/A,40.67195892,30.61705017,Marmara,1414,114,2025-02-18,Tue,4,6
1416,00:30,1,,08:30,18:00,Turkey,MANISA,YUNUSEMRE,TOPÇUASIM MAHALLESI İZMIR CADDESI TOPÇUASIM MAHALLESI NO:144/B  144/B,38.608723017423,27.4200011417525,Aegean,1416,25,2025-02-25,Tue,1,4
1428,00:30,4,,08:30,18:00,Turkey,NEVŞEHIR,AVANOS,BAHÇELIEVLER MAHALLESI KAPADOKYA CADDESI  3,38.713702,34.843399,Central Anatolia,1428,178,2025-02-17,Mon,4,3
1444,00:30,4,,08:30,18:00,Turkey,Zonguldak,Alapli,MERKEZ MAHALLESI İSTANBUL CADDESI MERKEZ MAHALLESI NO:1  1,41.17987442,31.38588524,Black Sea,1444,90,2025-02-17,Mon,4,5
1481,00:30,1,,08:30,18:00,Turkey,AYDIN,SÖKE,BAHABEY MAHALLESI YENIGUN SOKAK BAHABEY MAHALLESI NO:20  20,37.751482,27.408424,Aegean,1481,49,2025-02-25,Tue,1,2
1492,00:30,4,,08:30,18:00,Turkey,Kastamonu,Devrekani,AHIÇELEBI MAHALLESI MEYDAN CAD. AHIÇELEBI MAHALLESI NO:7  7,41.602107,33.839475,Black Sea,1492,91,2025-02-17,Mon,4,1
1493,00:30,4,,08:30,18:00,Turkey,Kastamonu,Devrekani,KURTŞEYH MAH MEYDAN CADDESI KURTŞEYH MAH NO:4/B  4/B,41.60200738,33.83935704,Black Sea,1493,91,2025-02-17,Mon,4,5
1497,00:30,1,,08:30,18:00,Turkey,MANISA,ŞEHZADELER,KUŞLUBAHÇE MAHALLESI OKUL CADDESI KUŞLUBAHÇE MAHALLESI NO:68/A  68/A,38.6580153784764,27.3393317092762,Aegean,1497,25,2025-02-25,Tue,1,7
1500,00:30,4,,08:30,18:00,Turkey,Kastamonu,Merkez,KUZEYKENT MAHALLESI KAMIL DEMIRCIOĞLU CADDESI KUZEYKENT MAHALLESI NO:27  27,41.42996295,33.78688186,Black Sea,1500,91,2025-02-17,Mon,4,4
1505,00:30,4,,08:30,18:00,Turkey,BITLIS,TATVAN,SAHIL MAHALLESI ORDU EVI CADDESI  249/A,38.497924,42.284271,Eastern Anatolia,1505,130,2025-02-17,Mon,4,2
1556,00:30,4,,08:30,18:00,Turkey,Kastamonu,Devrekani,AHIÇELEBI MAHALLESI REŞADIYE CADDESI AHIÇELEBI MAHALLESI NO:4  4,41.601939,33.839717,Black Sea,1556,91,2025-02-17,Mon,4,3
1565,00:30,4,,08:30,18:00,Turkey,ISPARTA,MERKEZ,MODERN EVLER MAHALLESI SÜLEYMAN DEMIREL CADDESI MODERN EVLER MAHALLESI NO:80  80,37.778686,30.547789,Mediterranean,1565,72,2025-02-20,Thu,4,2
1580,00:30,4,,08:30,18:00,Turkey,Diyarbakır,Ergani,NAMIK KEMAL MAH KURTULUŞ CAD  71,38.2482485,39.7837781,Southeastern Anatolia,1580,138,2025-02-22,Sat,4,2
1596,00:30,4,,08:30,18:00,Turkey,ANKARA,ETIMESGUT,OĞUZLAR MAHALLESI 1562. CADDESI 16/A-B,39.941696,32.600323,Central Anatolia,1596,163,2025-02-17,Mon,4,2
1602,00:30,4,,08:30,18:00,Turkey,Bartın,Merkez,ORDUYERI MAHALLESI FATIH SULTAN MEHMET CAD. ORDUYERI MAHALLESI NO:158 C  158 C,41.64379835,32.35770222,Black Sea,1602,90,2025-02-18,Tue,4,6
1604,00:30,4,,08:30,18:00,Turkey,ANKARA,MAMAK,GÜLVEREN MAHALLESI PLEVNE CADDESI 286/20,39.950827,32.89978,Central Anatolia,1604,144,2025-02-18,Tue,4,7
1640,00:30,1,,08:30,18:00,Turkey,MANISA,ŞEHZADELER,PEKER MAHALLESI İBRAHIM GÖKÇEN BULVARI PEKER MAHALLESI NO:64/C  64/C,38.6170325836258,27.4275117232793,Aegean,1640,25,2025-02-25,Tue,1,3
1667,00:30,4,,08:30,18:00,Turkey,ANTALYA,ALANYA,CIKCILLI MAHALLESI HACIBABA CADDESI CIKCILLI MAHALLESI NO:19  19,36.546897,32.026769,Mediterranean,1667,73,2025-02-18,Tue,4,1
1669,00:30,4,,08:30,18:00,Turkey,Adana,Yüreğir,Sarıçam Mah.2463 Sok. No:5 ,36.995877,35.356013,Mediterranean,1669,98,2025-02-19,Wed,4,2
1683,00:30,4,,08:30,18:00,Turkey,ŞANLIURFA,EYYÜBIYE,SELÇUKLU MAHALLESI HAYATI HARRANI CADDESI 20/A,37.1217302536526,38.7988642952014,Southeastern Anatolia,1683,56,2025-02-18,Tue,4,4
1685,00:30,4,,08:30,18:00,Turkey,ŞANLIURFA,EYYÜBIYE,SELÇUKLU MAHALLESI 3611. SOKAK 2A1,37.125525,38.796885,Southeastern Anatolia,1685,56,2025-02-18,Tue,4,1
1694,00:30,4,,08:30,18:00,Turkey,YOZGAT,MERKEZ,ŞEYH OSMAN MAHALLESI SAĞLIK CADDESI  4,39.817017,34.796578,Central Anatolia,1694,102,2025-02-18,Tue,4,6
1695,00:30,4,,08:30,18:00,Turkey,ESKIŞEHIR,ODUNPAZARI,VIŞNELIK MAHALLESI ÖĞRETMENLER CADDESI 42/B,39.767826,30.508435,Central Anatolia,1695,168,2025-02-20,Thu,4,2
1701,00:30,4,,08:30,18:00,Turkey,ADANA,KOZAN,ŞEVKIYE MAHALLESI SIRKINTI CADDESI 58/A,37.44935,35.800376,Mediterranean,1701,96,2025-02-21,Fri,4,3
1718,00:30,4,,08:30,18:00,Turkey,OSMANIYE,KADIRLI,CEMALPAŞA MAHALLESI TEVFIK PAMPAL CADDESI 88/A,37.3740411700736,36.0755568997207,Mediterranean,1718,140,2025-02-17,Mon,4,3
1739,00:30,1,,08:30,18:00,Turkey,İZMIR,TORBALI,TORBALI MAHALLESI 5027. SOKAK TORBALI MAHALLESI NO:1/A  1/A,38.17876,27.351506,Aegean,1739,22,2025-02-26,Wed,1,3
1746,00:30,4,,08:30,18:00,Turkey,NEVŞEHIR,ÜRGÜP,Turgut Özal Is Merkezı ADNAN KAHVECI CADDESI  25,38.631123,34.914046,Central Anatolia,1746,178,2025-02-19,Wed,4,4
1747,00:30,1,,08:30,18:00,Turkey,MARDIN,KIZILTEPE,TURGUT ÖZAL MAH MARDIN CADDESI  366,37.226635,40.627647,Southeastern Anatolia,1747,135,2025-03-01,Sat,1,7
1762,00:30,4,,08:30,18:00,Turkey,KONYA,EREĞLI,FAKIPAŞA MAHALLESI ADANA KARAMAN YOLU FAKIPAŞA MAHALLESI NO:3  3,37.51252,34.04833,Central Anatolia,1762,86,2025-02-17,Mon,4,2
1768,00:30,4,,08:30,18:00,Turkey,VAN,ERCIŞ,CAMIKEBIR MAHALLESI VANYOLU CADDESI  1,39.026271,43.36471,Eastern Anatolia,1768,129,2025-02-21,Fri,4,1
1806,00:30,4,,08:30,18:00,Turkey,VAN,EDREMIT,YENI MAHALLESI 33. SOKAK  2,38.422817,43.29258,Eastern Anatolia,1806,133,2025-02-20,Thu,4,7
1808,00:30,1,,08:30,18:00,Turkey,Bursa,İnegöl,YENICE MAHALLESI KASIM EFENDI CADDESI YENICE MAHALLESI NO:57  57,40.075095,29.513113,Marmara,1808,535,2025-03-11,Tue,1,2
1830,00:30,4,,08:30,18:00,Turkey,ANKARA,YENIMAHALLE,YESIL EVLER MAH IVEDIK CAD 580,39.977644,32.780172,Central Anatolia,1830,152,2025-02-18,Tue,4,2
1854,00:30,1,,08:30,18:00,Turkey,MANISA,SALIHLI,BEŞEYLÜL MAHALLESI BELEDIYE CADDESI BEŞEYLÜL MAHALLESI NO:17/A  17/A,38.487795413341,28.1488891119765,Aegean,1854,82,2025-02-25,Tue,1,5
1966,00:30,4,,08:30,18:00,Turkey,VAN,İPEKYOLU,ALIPAŞA MAHALLESI İSKELE CADDESI  102/1,38.50822,43.375973,Eastern Anatolia,1966,133,2025-02-18,Tue,4,1
2014,00:30,1,,08:30,18:00,Turkey,MANISA,AKHISAR,ATATÜRK MAHALLESI 524. SOKAK ATATÜRK MAHALLESI NO:18/A  18/A,38.9168833487919,27.8202998074349,Aegean,2014,25,2025-02-27,Thu,1,1
2077,00:30,4,,08:30,18:00,Turkey,Sakarya,Hendek,BAŞPINAR MAHALLESI ŞHT. A.GAFFAR OKAN BULVARI BAŞPINAR MAHALLESI NO:14/B  14/B,40.796396,30.743147,Marmara,2077,114,2025-02-21,Fri,4,3
2116,00:30,4,,08:30,18:00,Turkey,Kastamonu,Merkez,İNÖNÜ MAHALLESI RAUF DENKTAŞ CADDESI İNÖNÜ MAHALLESI NO:93/C  93/C,41.40664677,33.7965586,Black Sea,2116,91,2025-02-19,Wed,4,1
2195,00:30,4,,08:30,18:00,Turkey,ELAZIĞ,MERKEZ,ÇARŞI MAHALLESI SAKARYA CADDESI  23,38.671645,39.224375,Eastern Anatolia,2195,103,2025-02-18,Tue,4,7
2271,00:30,4,,08:30,18:00,Turkey,KAYSERI,DEVELI,İZMIRLI MAHALLESI CUMHURIYET CADDESI  107/B,38.3823205592543,35.4881368204951,Central Anatolia,2271,94,2025-02-17,Mon,4,7
2277,00:30,4,,08:30,18:00,Turkey,KONYA,MERAM,EKMEKKOÇU MAHALLESI ABDÜLREŞIT CADDESI EKMEKKOÇU MAHALLESI NO:48  48,37.828655,32.498539,Central Anatolia,2277,76,2025-02-18,Tue,4,1
2516,00:30,4,,08:30,18:00,Turkey,BITLIS,MERKEZ,HÜSREV PAŞA MAH 1210. SOKAK  11/E,38.432080706837,42.1331898862451,Eastern Anatolia,2516,130,2025-02-19,Wed,4,5
2685,00:30,4,,08:30,18:00,Turkey,KAYSERI,MELIKGAZI,KÖŞK MAHALLESI  ŞHT.MUSTAFA ŞIMŞEK CADDESI  70/D,38.723486,35.516444,Central Anatolia,2685,69,2025-02-21,Fri,4,4
2739,00:30,4,,08:30,18:00,Turkey,Kastamonu,Merkez,MEHMET AKIF ERSOY MAHALLESI SEPETÇIOĞLU SOKAK MEHMET AKIF ERSOY MAHALLESI NO:19/A  19/A,41.395649,33.787895,Black Sea,2739,91,2025-02-20,Thu,4,3
2860,00:30,4,,08:30,18:00,Turkey,KAYSERI,MELIKGAZI,OSMANLI MAHALLESI İPEKTEN SOKAK  51,38.690697,35.477267,Central Anatolia,2860,94,2025-02-17,Mon,4,1
2888,00:30,4,,08:30,18:00,Turkey,DIYARBAKIR,KAYAPINAR,PEYAS MAHALLESI 470 SOKAK  11/A,37.9306985511152,40.1737188207351,Southeastern Anatolia,2888,138,2025-02-21,Fri,4,5
2925,00:30,4,,08:30,18:00,Turkey,ELAZIĞ,MERKEZ,SANAYI MAHALLESI SANAYI CADDESI  53/A,38.670933,39.2379,Eastern Anatolia,2925,103,2025-02-21,Fri,4,8
2976,00:30,4,,08:30,18:00,Turkey,YOZGAT,MERKEZ,ŞEYH OSMAN MAHALLESI ADNAN MENDERES BULVARI  1,39.818122,34.797682,Central Anatolia,2976,102,2025-02-17,Mon,4,6
3087,00:30,4,,08:30,18:00,Turkey,VAN,ERCIŞ,CAMIIKEBIR MAHALLESI VAN YOLU BULVARI  80,39.025276184082,43.3680152893066,Eastern Anatolia,3087,129,2025-02-21,Fri,4,6
3128,00:30,1,,08:30,18:00,Turkey,İZMIR,TORBALI,YEMIŞLIK MAHALLESI BEKIR SAKARYA CADDESI YEMIŞLIK MAHALLESI NO:88/A  88/A,38.1491171934539,27.370019284115,Aegean,3128,22,2025-03-01,Sat,1,1
3137,00:30,4,,08:30,18:00,Turkey,YOZGAT,SORGUN,YENI MAHALLESI CUMHURIYET CADDESI  28,39.809609,35.191001,Central Anatolia,3137,102,2025-02-18,Tue,4,7
3169,00:30,4,,08:30,18:00,Turkey,KAYSERI,DEVELI,YENI MAHALLESI ELBIZ CADDESI  78/A,38.3901421243024,35.4890303313732,Central Anatolia,3169,94,2025-02-17,Mon,4,6
3199,00:30,4,,08:30,18:00,Turkey,ESKIŞEHIR,TEPEBAŞI,YEŞILTEPE MAHALLESI BILGEÇ CADDESI 17,39.797977,30.501999,Central Anatolia,3199,165,2025-02-19,Wed,4,3
3230,00:30,4,,08:30,18:00,Turkey,ELAZIĞ,MERKEZ,yeni mah YUNUS EMRE BULVARI  69/B,38.6821826362699,39.2156808361924,Eastern Anatolia,3230,103,2025-02-18,Tue,4,2
3243,00:30,4,,08:30,18:00,Turkey,MUŞ,MERKEZ,ZAFER MAHALLESI ERZURUM CADDESI  124/B104,38.7426987954035,41.5121302395212,Eastern Anatolia,3243,130,2025-02-22,Sat,4,7
4183,00:30,1,,08:30,18:00,Turkey,Bursa,Yıldırım,ÇINARÖNÜ MAHALLESI ÇINARÖNÜ CADDESI ÇINARÖNÜ MAHALLESI NO:53  53,40.196504,29.134892,Marmara,4183,12,2025-02-26,Wed,1,4
4186,00:30,1,,08:30,18:00,Turkey,Bursa,Osmangazi,YEŞILOVA MAHALLESI ENDER CADDESI YEŞILOVA MAHALLESI NO:107  107,40.20774,29.068504,Marmara,4186,2,2025-02-25,Tue,1,5
4234,00:30,1,,08:30,18:00,Turkey,Bursa,Nilüfer,CUMHURIYET MAHALLESI FATIH SULTAN MEHMET CADDESI CUMHURIYET MAHALLESI NO:69  69,40.223068,28.977905,Marmara,4234,1,2025-02-24,Mon,1,2
4258,00:30,1,,08:30,18:00,Turkey,Bursa,Yıldırım,AKÇAĞLAYAN MAHALLESI ÇIÇEK CADDESI AKÇAĞLAYAN MAHALLESI NO:45658  45658,40.174538,29.096367,Marmara,4258,12,2025-02-28,Fri,1,2
4260,00:30,1,,08:30,18:00,Turkey,Bursa,Osmangazi,ALEMDAR MAHALLESI HACI BAYRAM CADDESI ALEMDAR MAHALLESI NO:1  1,40.210724,29.034412,Marmara,4260,5,2025-02-26,Wed,1,4
4261,00:30,1,,08:30,18:00,Turkey,Bursa,Osmangazi,ALEMDAR MAHALLESI 1. ORMANLAR YOLU CADDESI ALEMDAR MAHALLESI NO:112/114  112/114,40.208294,29.033692,Marmara,4261,5,2025-02-26,Wed,1,3
4269,00:30,1,,08:30,18:00,Turkey,Bursa,Osmangazi,BAŞARAN MAHALLESI 1. HAKAN CADDESI BAŞARAN MAHALLESI NO:70  70,40.208452,29.071144,Marmara,4269,2,2025-02-25,Tue,1,4
4278,00:30,1,,08:30,18:00,Turkey,Bursa,Osmangazi,FATIH SULTAN MEHMET MAHALLESI ZÜMRÜT SOKAK FATIH SULTAN MEHMET MAHALLESI NO:25  25,40.26096,28.953739,Marmara,4278,4,2025-02-28,Fri,1,5
4280,00:30,1,,08:30,18:00,Turkey,Bursa,Yıldırım,ERIKLI MAHALLESI ERIKLI CADDESI ERIKLI MAHALLESI NO:66/C  66/C,40.187084,29.141085,Marmara,4280,12,2025-03-01,Sat,1,2
4281,00:30,1,,08:30,18:00,Turkey,Bursa,Nilüfer,ERTUĞRUL MAHALLESI 132. SOKAK ERTUĞRUL MAHALLESI NO:9/A  9/A,40.218398,28.923197,Marmara,4281,1,2025-02-25,Tue,1,1
4282,00:30,1,,08:30,18:00,Turkey,Bursa,Gemlik,EŞREF DINÇER MAHALLESI IRMAK SOKAK EŞREF DINÇER MAHALLESI NO:156  156,40.431083,29.167395,Marmara,4282,12,2025-02-24,Mon,1,2
4289,00:30,1,,08:30,18:00,Turkey,Bursa,Yıldırım,HOCATAŞKIN MAHALLESI İNCIRLI CADDESI HOCATAŞKIN MAHALLESI NO:54  54,40.183819,29.078776,Marmara,4289,12,2025-02-28,Fri,1,1
4292,00:30,1,,08:30,18:00,Turkey,Bursa,Kestel,YENI MAHALLESI KANUNI SOKAK YENI MAHALLESI NO:2  2,40.189979,29.208033,Marmara,4292,12,2025-02-26,Wed,1,2
4294,00:30,1,,08:30,18:00,Turkey,Bursa,Osmangazi,KÜPLÜPINAR MAHALLESI ERDOĞAN CADDESI KÜPLÜPINAR MAHALLESI NO:26  26,40.20419,29.052261,Marmara,4294,5,2025-02-25,Tue,1,3
4303,00:30,1,,08:30,18:00,Turkey,Bursa,Mudanya,ÖMERBEY MAHALLESI ÜSTÜN SOKAK ÖMERBEY MAHALLESI NO:18  18,40.373796,28.88643,Marmara,4303,4,2025-02-25,Tue,1,1
4304,00:30,1,,08:30,18:00,Turkey,Bursa,Nilüfer,ERTUĞRUL MAHALLESI AHMET TANER KIŞLALI BULVARI ERTUĞRUL MAHALLESI NO:12  12,40.216902,28.915495,Marmara,4304,4,2025-02-27,Thu,1,4
4305,00:30,1,,08:30,18:00,Turkey,Bursa,Osmangazi,PANAYIR MAHALLESI PANAYIR YOLU CADDESI PANAYIR MAHALLESI NO:263/1  263/1,40.247017,29.06998,Marmara,4305,2,2025-02-25,Tue,1,3
4308,00:30,1,,08:30,18:00,Turkey,Bursa,Yıldırım,KAZIKLI MAHALLESI KOCA ALI CADDESI KAZIKLI MAHALLESI NO:118/A  118/A,40.23041388,29.12609562,Marmara,4308,12,2025-02-25,Tue,1,3
4309,00:30,1,,08:30,18:00,Turkey,Bursa,Mudanya,AYDINPINAR MAHALLESI ORHANGAZI CADDESI AYDINPINAR MAHALLESI NO:45323  45323,40.352833,28.916879,Marmara,4309,4,2025-02-28,Fri,1,3
4311,00:30,1,,08:30,18:00,Turkey,Bursa,Kestel,VANIMEHMET MAHALLESI CUMA CADDESI VANIMEHMET MAHALLESI NO:34  34,40.200119,29.21435,Marmara,4311,12,2025-02-26,Wed,1,3
4312,00:30,1,,08:30,18:00,Turkey,Bursa,Osmangazi,YEŞILOVA MAHALLESI KEMERÇEŞME CADDESI YEŞILOVA MAHALLESI NO:228  228,40.211692,29.065521,Marmara,4312,2,2025-02-25,Tue,1,1
4313,00:30,1,,08:30,18:00,Turkey,Bursa,Osmangazi,YEŞILOVA MAHALLESI KEMERÇEŞME CADDESI YEŞILOVA MAHALLESI NO:130  130,40.20662,29.063756,Marmara,4313,2,2025-02-25,Tue,1,2
4314,00:30,1,,08:30,18:00,Turkey,Bursa,Osmangazi,YUNUSELI MAHALLESI FUAT KUŞÇUOĞLU CADDESI YUNUSELI MAHALLESI NO:233  233,40.250383,29.016282,Marmara,4314,6,2025-02-26,Wed,1,3
4316,00:30,1,,08:30,18:00,Turkey,Bursa,Gürsu,ZAFER MAHALLESI ZAFER CADDESI ZAFER MAHALLESI NO:33/A  33/A,40.220357,29.188861,Marmara,4316,12,2025-03-01,Sat,1,4
4317,00:30,1,,08:30,18:00,Turkey,Balıkesir,Karesi,1. GÜNDOĞAN MAHALLESI CENGIZ TOPEL CADDESI 1. GÜNDOĞAN MAHALLESI NO:99  99,39.641352,27.897992,Marmara,4317,169,2025-02-26,Wed,1,3
4322,00:30,1,,08:30,18:00,Turkey,Balıkesir,Karesi,ALTI EYLÜL MAHALLESI SOMA CADDESI ALTI EYLÜL MAHALLESI NO:4  4,39.640718,27.880584,Marmara,4322,169,2025-02-26,Wed,1,4
4324,00:30,1,,08:30,18:00,Turkey,Balıkesir,Karesi,GAZIOSMANPAŞA MAHALLESI YAKUP ŞEVKI PAŞA CADDESI GAZIOSMANPAŞA MAHALLESI NO:32  32,39.622765,27.880176,Marmara,4324,169,2025-02-25,Tue,1,4
4325,00:30,1,,08:30,18:00,Turkey,Balıkesir,Altıeylül,"8054. SOKAK Gümüsçesme, Sebze Ve Meyve Hali NO:2/H ",39.65371524,27.90522782,Marmara,4325,8,2025-02-26,Wed,1,1
4327,00:30,1,,08:30,18:00,Turkey,Balıkesir,Karesi,KASAPLAR MAHALLESI SOMA CADDESI KASAPLAR MAHALLESI NO:129/A  129/A,39.633403,27.8791,Marmara,4327,169,2025-02-25,Tue,1,3
4328,00:30,1,,08:30,18:00,Turkey,Balıkesir,Karesi,1. SAKARYA MAHALLESI ÇETIN SOKAK 1. SAKARYA MAHALLESI NO:13/A  13/A,39.661298,27.881356,Marmara,4328,8,2025-02-28,Fri,1,2
4329,00:30,1,,08:30,18:00,Turkey,Balıkesir,Karesi,KUVA-I· MILLIYE MAHALLESI CIHAT BILGIHAN CADDESI KUVA-I· MILLIYE MAHALLESI NO:59/A  59/A,39.657254,27.861787,Marmara,4329,169,2025-03-01,Sat,1,4
4330,00:30,1,,08:30,18:00,Turkey,Balıkesir,Karesi,1. SAKARYA MAHALLESI ÇETIN SOKAK 1. SAKARYA MAHALLESI NO:13/A  13/A,39.656224,27.868345,Marmara,4330,169,2025-03-01,Sat,1,3
4335,00:30,1,,08:30,18:00,Turkey,Balıkesir,Altıeylül,PLEVNE MAHALLESI ŞEHIT BIROL KOÇ CADDESI PLEVNE MAHALLESI NO:42/1  42/1,39.62912731,27.88596689,Marmara,4335,169,2025-02-26,Wed,1,2
4351,00:30,1,Sat,08:30,18:00,Turkey,Çanakkale,Merkez,CUMHURIYET MAHALLESI ATATÜRK CADDESI CUMHURIYET MAHALLESI NO:179/A  179/A,40.097555,26.395245,Marmara,4351,9,2025-03-01,Sat,1,3
4359,00:30,1,,08:30,18:00,Turkey,Çanakkale,Merkez,BARBAROS MAHALLESI CEVIZ SOKAK BARBAROS MAHALLESI NO:2/A-1  2/A-1,40.140616,26.415081,Marmara,4359,9,2025-02-28,Fri,1,4
4429,00:30,1,,08:30,18:00,Turkey,Balıkesir,Havran,HAMAMBAŞI MAHALLESI İNÖNÜ CADDESI HAMAMBAŞI MAHALLESI NO:1/A  1/A,39.558112,27.100576,Marmara,4429,10,2025-02-24,Mon,1,1
4459,00:30,1,,08:30,18:00,Turkey,Bursa,İnegöl,TARIM KREDİ KOOPALLESI TARIM KREDİ KOOP.NO:23 TARIM KREDİ KOOPALLESI NO:23  23,40.08304413,29.50252715,Marmara,4459,24,2025-02-25,Tue,1,3
4505,00:30,1,,08:30,18:00,Turkey,Balıkesir,Gönen,AKÇAALI MAHALLESI ATATÜRK CADDESI AKÇAALI MAHALLESI NO:5  5,40.105585,27.651937,Marmara,4505,11,2025-02-25,Tue,1,4
4512,00:30,1,,08:30,18:00,Turkey,Balıkesir,Bandırma,İHSANIYE MAHALLESI 1524. SOKAK İHSANIYE MAHALLESI NO:24  24,40.343367,27.991149,Marmara,4512,11,2025-02-28,Fri,1,3
4516,00:30,1,,08:30,18:00,Turkey,Çanakkale,Biga,SAKARYA MAHALLESI MUAMMER AKSOY CADDESI SAKARYA MAHALLESI NO:56  56,40.222916,27.243117,Marmara,4516,11,2025-02-27,Thu,1,4
4519,00:30,1,,08:30,18:00,Turkey,Balıkesir,Susurluk,YENI MAHALLESI İSTASYON CADDESI YENI MAHALLESI NO:41/A  41/A,39.916708,28.155726,Marmara,4519,8,2025-02-25,Tue,1,2
4540,00:30,4,,08:30,18:00,Turkey,Sakarya,Erenler,DILMEN MAHALLESI SAKARBABA CADDESI DILMEN MAHALLESI NO:133/1  133/1,40.764952,30.399768,Marmara,4540,128,2025-02-17,Mon,4,1
4541,00:30,4,,08:30,18:00,Turkey,Sakarya,Adapazarı,GÜNEŞLER MERKEZ MAHALLESI ANKARA CADDESI GÜNEŞLER MERKEZ MAHALLESI NO:288/A  288/A,40.790356,30.425201,Marmara,4541,128,2025-02-18,Tue,4,1
4542,00:30,4,,08:30,18:00,Turkey,Sakarya,Serdivan,ARABACIALANI MAHALLESI MERT SOKAK ARABACIALANI MAHALLESI NO:2  2,40.773107,30.367765,Marmara,4542,115,2025-02-19,Wed,4,2
4543,00:30,4,,08:30,18:00,Turkey,Sakarya,Serdivan,İSTIKLAL MAHALLESI KASIM PAŞA CADDESI İSTIKLAL MAHALLESI NO:13  13,40.771765,30.361264,Marmara,4543,115,2025-02-17,Mon,4,2
4544,00:30,4,,08:30,18:00,Turkey,Sakarya,Serdivan,ARABACIALANI MAHALLESI ŞEHIT MEHMET KARABAŞOĞLU CADDESI ARABACIALANI MAHALLESI NO:90  90,40.77811955,30.35235616,Marmara,4544,115,2025-02-17,Mon,4,3
4546,00:30,4,,08:30,18:00,Turkey,Sakarya,Karasu,YALI MAHALLESI PLAJ CADDESI YALI MAHALLESI NO:69  69,41.100721,30.69259,Marmara,4546,114,2025-02-19,Wed,4,1
4547,00:30,4,,08:30,18:00,Turkey,Sakarya,Serdivan,BAHÇELIEVLER MAHALLESI KIRIŞHANE CADDESI BAHÇELIEVLER MAHALLESI NO:110/A  110/A,40.76685687,30.37945919,Marmara,4547,2748,2025-02-18,Tue,4,1
4548,00:30,4,,08:30,18:00,Turkey,Sakarya,Erenler,GÜLLÜK MAHALLESI ADNAN MENDERES CADDESI GÜLLÜK MAHALLESI NO:143/1  143/1,40.762089,30.3925,Marmara,4548,128,2025-02-17,Mon,4,3
4549,00:30,4,,08:30,18:00,Turkey,Sakarya,Hendek,MAHMUTBEY MAHALLESI OSMAN GAZI CADDESI MAHMUTBEY MAHALLESI NO:5/A/1  5/A/1,40.794531,30.736041,Marmara,4549,114,2025-02-18,Tue,4,3
4550,00:30,4,,08:30,18:00,Turkey,Sakarya,Serdivan,KÖPRÜBAŞI MAHALLESI ARALIK CADDESI  KÖPRÜBAŞI MAHALLESI NO:25  25,40.788003,30.369531,Marmara,4550,115,2025-02-18,Tue,4,1
4551,00:30,4,,08:30,18:00,Turkey,Sakarya,Adapazarı,ORTA MAHALLESI 675 SOKAK ORTA MAHALLESI NO:6  6,40.781215,30.400638,Marmara,4551,128,2025-02-19,Wed,4,2
4552,00:30,4,,08:30,18:00,Turkey,Sakarya,Erenler,TABAKHANE MAHALLESI SAKARYA CADDESI TABAKHANE MAHALLESI NO:174/1  174/1,40.763189,30.412428,Marmara,4552,128,2025-02-17,Mon,4,2
4553,00:30,4,,08:30,18:00,Turkey,Sakarya,Adapazarı,TIĞCILAR MAHALLESI KAVAKLAR CADDESI TIĞCILAR MAHALLESI NO:10/A  10/A,40.777053,30.402233,Marmara,4553,128,2025-02-19,Wed,4,3
4555,00:30,4,,08:30,18:00,Turkey,Sakarya,Adapazarı,CAMILI MAHALLESI BEYAZIT CADDESI CAMILI MAHALLESI NO:8/A  8/A,40.855824,30.318738,Marmara,4555,114,2025-02-17,Mon,4,1
4556,00:30,4,,08:30,18:00,Turkey,Sakarya,Akyazı,KONURALP MAHALLESI ADA CADDESI KONURALP MAHALLESI NO:25  25,40.6799,30.624246,Marmara,4556,114,2025-02-18,Tue,4,4
4558,00:30,4,,08:30,18:00,Turkey,Sakarya,Sapanca,GÖL MAHALLESI FEVZI ÇAKMAK CADDESI GÖL MAHALLESI NO:45302  45302,40.68938403,30.27660425,Marmara,4558,114,2025-02-17,Mon,4,4
4559,00:30,4,,08:30,18:00,Turkey,Sakarya,Ferizli,KEMALPAŞA MAHALLESI FEVZI ÇAKMAK CADDESI KEMALPAŞA MAHALLESI NO:51/C  51/C,40.9366637,30.48863149,Marmara,4559,114,2025-02-19,Wed,4,4
4560,00:30,4,,08:30,18:00,Turkey,Sakarya,Adapazarı,KORUCUK MAHALLESI KEREM COŞKUN CADDESI KORUCUK MAHALLESI NO:6  6,40.857657,30.287449,Marmara,4560,114,2025-02-20,Thu,4,3
4561,00:30,4,,08:30,18:00,Turkey,Sakarya,Adapazarı,KORUCUK MAHALLESI KORUCUK CADDESI KORUCUK MAHALLESI NO:1  1,40.858688,30.289441,Marmara,4561,114,2025-02-17,Mon,4,2
4564,00:30,4,,08:30,18:00,Turkey,Sakarya,Adapazarı,YENI CAMI MAHALLESI SAKARYA CADDESI YENI CAMI MAHALLESI NO:36  36,40.77126,30.405702,Marmara,4564,128,2025-02-17,Mon,4,4
4566,00:30,4,,08:30,18:00,Turkey,Sakarya,Serdivan,BEŞKÖPRÜ MAHALLESI BEŞKÖPRÜ CADDESI  BEŞKÖPRÜ MAHALLESI NO:251/A  251/A,40.73608901,30.36349422,Marmara,4566,2748,2025-02-21,Fri,4,6
4567,00:30,4,,08:30,18:00,Turkey,Sakarya,Adapazarı,MALTEPE MAHALLESI ORHAN GAZI CADDESI MALTEPE MAHALLESI NO:6/A  6/A,40.750381,30.385173,Marmara,4567,2748,2025-02-18,Tue,4,2
4569,00:30,4,,08:30,18:00,Turkey,Sakarya,Adapazarı,TEKELER MAHALLESI KARASU CADDESI TEKELER MAHALLESI NO:38/A  38/A,40.793685,30.407155,Marmara,4569,128,2025-02-18,Tue,4,2
4570,00:30,4,,08:30,18:00,Turkey,Sakarya,Hendek,YENI MAHALLESI OSMANGAZI CADDESI YENI MAHALLESI NO:45379  45379,40.793653,30.737015,Marmara,4570,114,2025-02-21,Fri,4,6
4571,00:30,4,,08:30,18:00,Turkey,Sakarya,Erenler,DILMEN MAHALLESI SAKARBABA CADDESI DILMEN MAHALLESI NO:107  107,40.765282,30.399652,Marmara,4571,128,2025-02-17,Mon,4,6
4572,00:30,4,,08:30,18:00,Turkey,Sakarya,Adapazarı,GÜNESLER MERKEZ MAH ANKARA CADDESI GÜNESLER MERKEZ MAH NO:252  252,40.788567,30.422915,Marmara,4572,128,2025-02-18,Tue,4,3
4573,00:30,4,,08:30,18:00,Turkey,Sakarya,Adapazarı,ORTA MAHALLESI KÖKÇÜ SOKAK ORTA MAHALLESI NO:3  3,40.781057,30.401388,Marmara,4573,128,2025-02-22,Sat,4,4
4574,00:30,4,,08:30,18:00,Turkey,Sakarya,Akyazı,ÖMERCIKLER MAHALLESI 8018. SOKAK ÖMERCIKLER MAHALLESI NO:1  1,40.685039,30.623201,Marmara,4574,114,2025-02-18,Tue,4,5
4575,00:30,4,,08:30,18:00,Turkey,Sakarya,Erenler,TABAKHANE MAHALLESI SAKARYA CADDESI TABAKHANE MAHALLESI NO:76/A  76/A,40.762789,30.412672,Marmara,4575,128,2025-02-17,Mon,4,5
4576,00:30,4,,08:30,18:00,Turkey,Sakarya,Adapazarı,TEKELER MAHALLESI ÇEVRE YOLU CADDESI TEKELER MAHALLESI NO:164  164,40.800403,30.404758,Marmara,4576,128,2025-02-18,Tue,4,6
4577,00:30,4,,08:30,18:00,Turkey,Sakarya,Adapazarı,SAKARYA MAHALLESI ESKI KANDIRA CADDESI SAKARYA MAHALLESI NO:158  158,40.793608,30.39311,Marmara,4577,128,2025-02-18,Tue,4,4
4578,00:30,4,,08:30,18:00,Turkey,Sakarya,Karasu,YALI MAHALLESI PLAJ CADDESI YALI MAHALLESI NO:23  23,41.100119,30.692353,Marmara,4578,114,2025-02-19,Wed,4,2
4580,00:30,4,,08:30,18:00,Turkey,Sakarya,Serdivan,ARABACIALANI MAHALLESI ÇARK CADDESI ARABACIALANI MAHALLESI NO:165  165,40.773651,30.379615,Marmara,4580,2748,2025-02-18,Tue,4,5
4581,00:30,4,,08:30,18:00,Turkey,Sakarya,Arifiye,ARIFBEY MAHALLESI ATATÜRK CADDESI ARIFBEY MAHALLESI NO:56/11  56/11,40.717111,30.365307,Marmara,4581,2748,2025-02-21,Fri,4,2
4582,00:30,4,,08:30,18:00,Turkey,Sakarya,Serdivan,BAHÇELIEVLER MAHALLESI BAĞLAR CADDESI  BAHÇELIEVLER MAHALLESI NO:103  103,40.758865,30.365894,Marmara,4582,2748,2025-02-18,Tue,4,3
4583,00:30,4,,08:30,18:00,Turkey,Sakarya,Serdivan,BAHÇELIEVLER MAHALLESI MUHSIN YAZICIOĞLU BULVARI BAHÇELIEVLER MAHALLESI NO:70/A  70/A,40.76653885,30.37370208,Marmara,4583,2748,2025-02-18,Tue,4,6
4584,00:30,4,,08:30,18:00,Turkey,Sakarya,Adapazarı,CUMHURIYET MAHALLESI TÜL SOKAK CUMHURIYET MAHALLESI NO:29  29,40.781077,30.393155,Marmara,4584,128,2025-02-21,Fri,4,3
4586,00:30,4,,08:30,18:00,Turkey,Sakarya,Adapazarı,SEMERCILER MAHALLESI MILLI EGEMENLIK CADDESI SEMERCILER MAHALLESI NO:23  23,40.77434345,30.39746531,Marmara,4586,128,2025-02-19,Wed,4,5
4587,00:30,4,,08:30,18:00,Turkey,Sakarya,Serdivan,VATAN MAHALLESI SÜLEYMAN BINEK CADDESI VATAN MAHALLESI NO:91/AA  91/AA,40.79515024,30.36108534,Marmara,4587,115,2025-02-20,Thu,4,1
4590,00:30,4,,08:30,18:00,Turkey,Sakarya,Serdivan,OTUZIKI EVLER MAHALLESI BEŞKÖPRÜ CADDESI OTUZIKI EVLER MAHALLESI NO:18  18,40.752464,30.373569,Marmara,4590,2748,2025-02-18,Tue,4,4
4592,00:30,4,,08:30,18:00,Turkey,Sakarya,Adapazarı,ORTA MAHALLESI SOĞANPAZARI CADDESI ORTA MAHALLESI NO:6  6,40.777778,30.403693,Marmara,4592,128,2025-02-19,Wed,4,4
4593,00:30,4,,08:30,18:00,Turkey,Sakarya,Adapazarı,ŞEKER MAHALLESI YAZLIK CADDESI ŞEKER MAHALLESI NO:121  121,40.784842,30.381991,Marmara,4593,128,2025-02-18,Tue,4,5
4595,00:30,4,,08:30,18:00,Turkey,Kocaeli,Kartepe,İSTASYON MAHALLESI LEYLA ATAKAN CADDESI İSTASYON MAHALLESI NO:18  18,40.750972,30.022661,Marmara,4595,123,2025-02-17,Mon,4,2
4597,00:30,4,,08:30,18:00,Turkey,Kocaeli,Körfez,MIMAR SINAN MAHALLESI MEHMET AKIF ERSOY CADDESI MIMAR SINAN MAHALLESI NO:88/E  88/E,40.770776,29.742921,Marmara,4597,174,2025-02-18,Tue,4,3
4598,00:30,4,,08:30,18:00,Turkey,Kocaeli,Kartepe,ULUS MAHALLESI SAKIP SABANCI CADDESI ULUS MAHALLESI NO:30/A  30/A,40.755211,30.027271,Marmara,4598,123,2025-02-17,Mon,4,1
4599,00:30,4,,08:30,18:00,Turkey,Kocaeli,Kartepe,ATAEVLER MAHALLESI SAPANCAYOLU CADDESI ATAEVLER MAHALLESI NO:14/A  14/A,40.74819946,30.04654884,Marmara,4599,123,2025-02-19,Wed,4,4
4600,00:30,4,,08:30,18:00,Turkey,Kocaeli,Derince,DENIZ MAHALLESI İSTIKLAL CADDESI DENIZ MAHALLESI NO:180  180,40.756297,29.831748,Marmara,4600,174,2025-02-17,Mon,4,2
4601,00:30,4,,08:30,18:00,Turkey,Kocaeli,Körfez,GÜNEY MAHALLESI TUĞRUL CADDESI GÜNEY MAHALLESI NO:9/A  9/A,40.760363,29.786262,Marmara,4601,174,2025-02-18,Tue,4,4
4602,00:30,4,,08:30,18:00,Turkey,Kocaeli,İzmit,YEŞILOVA MAHALLESI TURAN GÜNEŞ CADDESI YEŞILOVA MAHALLESI NO:500/A  500/A,40.79099693,29.97447438,Marmara,4602,122,2025-02-18,Tue,4,7
4606,00:30,4,,08:30,18:00,Turkey,Sakarya,Arifiye,ARIFBEY MAHALLESI ATATÜRK CADDESI ARIFBEY MAHALLESI NO:207  207,40.715829,30.363658,Marmara,4606,2748,2025-02-21,Fri,4,5
4614,00:30,4,,08:30,18:00,Turkey,Sakarya,Söğütlü,CAMI CEDIT MAHALLESI ATATÜRK CADDESI CAMI CEDIT MAHALLESI NO:1  1,40.89391838,30.468551,Marmara,4614,114,2025-02-19,Wed,4,3
4618,00:30,4,,08:30,18:00,Turkey,Kocaeli,Başiskele,YEŞILYURT MAHALLESI ÇUHADAR CADDESI YEŞILYURT MAHALLESI NO:13  13,40.720927,29.948709,Marmara,4618,175,2025-02-17,Mon,4,2
4620,00:30,1,,08:30,18:00,Turkey,Kocaeli,Gebze,HACIHALIL MAHALLESI YENI BAĞDAT CADDESI HACIHALIL MAHALLESI NO:372/A  372/A,40.797971,29.427646,Marmara,4620,183,2025-02-26,Wed,1,2
4623,00:30,4,,08:30,18:00,Turkey,Kocaeli,Körfez,YAVUZ SULTAN MAHALLESI MEVLANA CADDESI YAVUZ SULTAN MAHALLESI NO:193  193,40.774837,29.803164,Marmara,4623,174,2025-02-18,Tue,4,5
4626,00:30,4,,08:30,18:00,Turkey,Kocaeli,Derince,ÇENEDAĞ MAHALLESI ÇENEDAĞ MAH ÇENEDAĞ MAHALLESI NO:75/a  75/a,40.757897,29.830987,Marmara,4626,174,2025-02-17,Mon,4,3
4627,00:30,4,,08:30,18:00,Turkey,Kocaeli,Derince,ÇINARLI MAHALLESI ÇENE SUYU CADDESI ÇINARLI MAHALLESI NO:40  40,40.762518,29.848856,Marmara,4627,174,2025-02-19,Wed,4,3
4635,00:30,4,,08:30,18:00,Turkey,Kocaeli,Gölcük,KARAKÖPRÜ MAHALLESI İSMET PAŞA CADDESI  KARAKÖPRÜ MAHALLESI NO:26  26,40.70333915,29.85291174,Marmara,4635,175,2025-02-19,Wed,4,7
4636,00:30,4,,08:30,18:00,Turkey,Kocaeli,Gölcük,ÇIFTLIK MAHALLESI İHSANIYE ADNAN MENDERES CADDESI ÇIFTLIK MAHALLESI NO:46/A  46/A,40.702781,29.844161,Marmara,4636,175,2025-02-19,Wed,4,4
4637,00:30,4,,08:30,18:00,Turkey,Kocaeli,Başiskele,KÖRFEZ MAHALLESI MAHMUT ÇAVUŞ CADDESI KÖRFEZ MAHALLESI NO:50  50,40.70582821,29.9213664,Marmara,4637,175,2025-02-17,Mon,4,5
4638,00:30,4,,08:30,18:00,Turkey,Kocaeli,Gölcük,PIYALEPAŞA MAHALLESI 591 SOKAK PIYALEPAŞA MAHALLESI NO:9  9,40.706773,29.834641,Marmara,4638,175,2025-02-19,Wed,4,3
4639,00:30,4,,08:30,18:00,Turkey,Kocaeli,Başiskele,BARBAROS MAHALLESI MILLET CADDESI BARBAROS MAHALLESI NO:27  27,40.71274931,29.93232709,Marmara,4639,175,2025-02-17,Mon,4,4
4640,00:30,4,,08:30,18:00,Turkey,Kocaeli,Gölcük,ÇIFTLIK MAHALLESI ALI UÇAR CADDESI ÇIFTLIK MAHALLESI NO:4  4,40.716748,29.840194,Marmara,4640,175,2025-02-19,Wed,4,5
4641,00:30,4,,08:30,18:00,Turkey,Kocaeli,Gölcük,MERKEZ MAHALLESI 19 MAYIS CADDESI MERKEZ MAHALLESI NO:51/A  51/A,40.718776,29.822785,Marmara,4641,175,2025-02-19,Wed,4,2
4642,00:30,4,,08:30,18:00,Turkey,Kocaeli,Gölcük,ŞIRINKÖY MAHALLESI ALI FUAT PAŞA CADDESI ŞIRINKÖY MAHALLESI NO:72/A  72/A,40.699435,29.826482,Marmara,4642,175,2025-02-19,Wed,4,6
4643,00:30,4,,08:30,18:00,Turkey,Kocaeli,Gölcük,TOPÇULAR MAHALLESI İLHAN TUBA CADDESI TOPÇULAR MAHALLESI NO:20  20,40.71434998,29.8059139,Marmara,4643,175,2025-02-20,Thu,4,5
4644,00:30,4,,08:30,18:00,Turkey,Kocaeli,Karamürsel,4 TEMMUZ MAHALLESI SARIKUM CADDESI 4 TEMMUZ MAHALLESI NO:30/B  30/B,40.689567,29.618958,Marmara,4644,175,2025-02-18,Tue,4,6
4645,00:30,4,,08:30,18:00,Turkey,Yalova,Altınova,CUMHURIYET MAHALLESI ATATÜRK BULVARI CUMHURIYET MAHALLESI NO:23  23,40.69666201,29.51030695,Marmara,4645,175,2025-02-18,Tue,4,7
4646,00:30,4,,08:30,18:00,Turkey,Kocaeli,Karamürsel,HACIMEHMET MAHALLESI AMIRAL CADDESI HACIMEHMET MAHALLESI NO:199  199,40.690492,29.610133,Marmara,4646,175,2025-02-18,Tue,4,2
4647,00:30,4,,08:30,18:00,Turkey,Yalova,Altınova,CUMHURIYET MAHALLESI ATATÜRK BULVARI CUMHURIYET MAHALLESI NO:3  3,40.69588089,29.50964165,Marmara,4647,175,2025-02-18,Tue,4,1
4648,00:30,4,,08:30,18:00,Turkey,Kocaeli,Karamürsel,KAYACIK MAHALLESI AMIRAL CADDESI KAYACIK MAHALLESI NO:206  206,40.690874,29.604619,Marmara,4648,175,2025-02-18,Tue,4,3
4649,00:30,4,,08:30,18:00,Turkey,Kocaeli,Karamürsel,KAYACIK MAHALLESI RAUF DENKTAŞ BULVARI KAYACIK MAHALLESI NO:3  3,40.689725,29.600157,Marmara,4649,175,2025-02-18,Tue,4,4
4650,00:30,4,,08:30,18:00,Turkey,Kocaeli,Karamürsel,TABAKHANE MAHALLESI ATATÜRK CADDESI TABAKHANE MAHALLESI NO:75  75,40.695966,29.622015,Marmara,4650,175,2025-02-18,Tue,4,5
4653,00:30,4,,08:30,18:00,Turkey,Kocaeli,İzmit,YEŞILOVA MAHALLESI TURAN GÜNEŞ CADDESI YEŞILOVA MAHALLESI NO:677  677,40.78693653,29.97150142,Marmara,4653,122,2025-02-18,Tue,4,8
4660,00:30,4,,08:30,18:00,Turkey,Kocaeli,İzmit,ALIKAHYA FATIH MAHALLESI SULTAN MURAT CADDESI ALIKAHYA FATIH MAHALLESI NO:27  27,40.773658,29.980299,Marmara,4660,123,2025-02-21,Fri,4,4
4661,00:30,4,,08:30,18:00,Turkey,Kocaeli,Başiskele,SEYMEN MAHALLESI HÜRRIYET CADDESI SEYMEN MAHALLESI NO:5  5,40.699226,29.904992,Marmara,4661,175,2025-02-17,Mon,4,3
4664,00:30,4,,08:30,18:00,Turkey,Kocaeli,Kartepe,GAZILER MAHALLESI ATATÜRK CADDESI GAZILER MAHALLESI NO:1  1,40.73865,30.003539,Marmara,4664,123,2025-02-17,Mon,4,3
4673,00:30,4,,08:30,18:00,Turkey,Düzce,Merkez,KÜLTÜR MAHALLESI ESKI TEKAVIL YOLU KÜLTÜR MAHALLESI NO:152  152,40.84097254,31.14043927,Black Sea,4673,153,2025-02-17,Mon,4,5
4676,00:30,4,,08:30,18:00,Turkey,Düzce,Merkez,KOÇYAZI MAHALLESI ÇEVRE YOLU KOÇYAZI MAHALLESI NO:8  8,40.841852,31.181724,Black Sea,4676,153,2025-02-19,Wed,4,6
4691,00:30,4,,08:30,18:00,Turkey,Bolu,Merkez,AKTAŞ MAHALLESI DR. ZIHNI ÜLGEN SOKAK AKTAŞ MAHALLESI NO:33  33,40.729739,31.610401,Black Sea,4691,113,2025-02-22,Sat,4,3
4693,00:30,4,,08:30,18:00,Turkey,Bolu,Merkez,BORAZANLAR MAHALLESI ŞEMSI AHMET PAŞA CADDESI BORAZANLAR MAHALLESI NO:13/A  13/A,40.733114,31.59334,Black Sea,4693,113,2025-02-22,Sat,4,1
4694,00:30,4,,08:30,18:00,Turkey,Bolu,Merkez,İHSANIYE MAHALLESI ÇEŞMELI SOKAK İHSANIYE MAHALLESI NO:2  2,40.736843,31.60961,Black Sea,4694,113,2025-02-19,Wed,4,5
4695,00:30,4,,08:30,18:00,Turkey,Bolu,Merkez,İZZET BAYSAL MAHALLESI ÇAKMAKLAR CADDESI İZZET BAYSAL MAHALLESI NO:17  17,40.743772,31.595226,Black Sea,4695,113,2025-02-18,Tue,4,1
4697,00:30,4,,08:30,18:00,Turkey,Bolu,Merkez,KILIÇARSLAN MAHALLESI 155.SOKAK KILIÇARSLAN MAHALLESI NO:1  1,40.73772328,31.57266145,Black Sea,4697,113,2025-02-19,Wed,4,1
4698,00:30,4,,08:30,18:00,Turkey,Bolu,Merkez,KÖROĞLU MAHALLESI GEREDE CADDESI KÖROĞLU MAHALLESI NO:13  13,40.733993,31.619002,Black Sea,4698,113,2025-02-19,Wed,4,3
4699,00:30,4,,08:30,18:00,Turkey,Bolu,Merkez,KÜLTÜR MAHALLESI NAMIK KEMAL  KÜLTÜR MAHALLESI NO:18  18,40.745509,31.602164,Black Sea,4699,113,2025-02-17,Mon,4,1
4701,00:30,4,,08:30,18:00,Turkey,Bolu,Merkez,SAĞLIK MAHALLESI DODURGA CADDESI SAĞLIK MAHALLESI NO:68  68,40.7475,31.611756,Black Sea,4701,113,2025-02-18,Tue,4,5
4703,00:30,4,,08:30,18:00,Turkey,Bolu,Merkez,SÜMER MAHALLESI HATTAT EMIN BARIN CADDESI SÜMER MAHALLESI NO:93/A  93/A,40.727333,31.590095,Black Sea,4703,113,2025-02-22,Sat,4,5
4704,00:30,4,,08:30,18:00,Turkey,Bolu,Merkez,SÜMER MAHALLESI CUMHURIYET CADDESI SÜMER MAHALLESI NO:229  229,40.722949,31.586209,Black Sea,4704,113,2025-02-19,Wed,4,4
4705,00:30,4,,08:30,18:00,Turkey,Bolu,Merkez,SEMERKANT MAHALLESI ŞEHIT MUHTAR CADDESI SEMERKANT MAHALLESI NO:1  1,40.732062,31.617819,Black Sea,4705,113,2025-02-19,Wed,4,2
4707,00:30,4,,08:30,18:00,Turkey,Bolu,Merkez,KARAÇAYIR MAHALLESI ALI RIZA TEKEMEN CADDESI KARAÇAYIR MAHALLESI NO:13/A  13/A,40.725851,31.601518,Black Sea,4707,113,2025-02-22,Sat,4,2
4713,00:30,4,,08:30,18:00,Turkey,Bartın,Merkez,KÖYORTASI MAHALLESI TERSANE CADDESI KÖYORTASI MAHALLESI NO:47  47,41.639226,32.339522,Black Sea,4713,90,2025-02-18,Tue,4,4
4715,00:30,4,,08:30,18:00,Turkey,Bartın,Merkez,TUNA MAHALLESI 218. CADDESI TUNA MAHALLESI NO:30  30,41.634104,32.348609,Black Sea,4715,90,2025-02-18,Tue,4,5
4724,00:30,4,,08:30,18:00,Turkey,Zonguldak,Merkez,TERAKKI MAHALLESI CUMHURIYET CADDESI TERAKKI MAHALLESI NO:27  27,41.450996,31.785451,Black Sea,4724,84,2025-02-22,Sat,4,3
4725,00:30,4,,08:30,18:00,Turkey,Zonguldak,Merkez,FATIH MAHALLESI ÇIRAĞAN SOKAK FATIH MAHALLESI NO:1/A  1/A,41.432018,31.737749,Black Sea,4725,84,2025-02-22,Sat,4,4
4726,00:30,4,,08:30,18:00,Turkey,Zonguldak,Merkez,GÜNEY MAHALLESI HÜRRIYET CADDESI GÜNEY MAHALLESI NO:28/A  28/A,41.43513681,31.74824873,Black Sea,4726,84,2025-02-22,Sat,4,6
4727,00:30,4,,08:30,18:00,Turkey,Zonguldak,Merkez,MERKEZ MAHALLESI VEYSEL ATASOY CADDESI MERKEZ MAHALLESI NO:25  25,41.435837,31.743627,Black Sea,4727,84,2025-02-22,Sat,4,5
4743,00:30,4,,08:30,18:00,Turkey,Zonguldak,Devrek,İSMET PAŞA MAHALLESI RÜŞTÜ ONUR SOKAK İSMET PAŞA MAHALLESI NO:44/A  44/A,41.22574805,31.96091907,Black Sea,4743,90,2025-02-19,Wed,4,4
4762,00:30,4,,08:30,18:00,Turkey,Karabük,Safranbolu,ESENTEPE MAHALLESI İNCEKAYA CD. ESENTEPE MAHALLESI NO:40  40,41.268183,32.673431,Black Sea,4762,91,2025-02-21,Fri,4,3
4764,00:30,4,,08:30,18:00,Turkey,Karabük,Merkez,75. YIL MAHALLESI 52. SOKAK 75. YIL MAHALLESI NO:45305  45305,41.23361293,32.65802703,Black Sea,4764,91,2025-02-18,Tue,4,3
4770,00:30,4,,08:30,18:00,Turkey,Zonguldak,Çaycuma,YENI MAHALLESI HALILBEY SOKAK YENI MAHALLESI NO:6/A  6/A,41.42769947,32.08345494,Black Sea,4770,90,2025-02-19,Wed,4,5
4775,00:30,4,,08:30,18:00,Turkey,Düzce,Merkez,CUMHURIYET MAHALLESI SIVRIOĞLU SOKAK CUMHURIYET MAHALLESI NO:45  45,40.839529,31.178659,Black Sea,4775,153,2025-02-18,Tue,4,5
4776,00:30,4,,08:30,18:00,Turkey,Düzce,Merkez,ÇAY MAHALLESI 642. SOKAK ÇAY MAHALLESI NO:8/D/8/E  8/D/8/E,40.83696,31.149864,Black Sea,4776,153,2025-02-17,Mon,4,6
4777,00:30,4,,08:30,18:00,Turkey,Düzce,Merkez,KOÇYAZI MAHALLESI ÇEVRE YOLU KOÇYAZI MAHALLESI NO:1  1,40.842172,31.182157,Black Sea,4777,153,2025-02-19,Wed,4,7
4778,00:30,4,,08:30,18:00,Turkey,Düzce,Merkez,SANCAKLAR MAHALLESI 2423 CADDESI SANCAKLAR MAHALLESI NO:23/A  23/A,40.85613529,31.16106645,Black Sea,4778,153,2025-02-18,Tue,4,3
4779,00:30,4,,08:30,18:00,Turkey,Düzce,Merkez,BEYCILER MAHALLESI DÜZCE AKÇAKOCA KARAYOLU CADDESI BEYCILER MAHALLESI NO:90/A  90/A,40.85623219,31.16622486,Black Sea,4779,153,2025-02-21,Fri,4,4
4780,00:30,4,,08:30,18:00,Turkey,Düzce,Merkez,KOÇYAZI MAHALLESI DÜZCE TOKI METEK KONUTLARI KOÇYAZI MAHALLESI NO:12  12,40.849953,31.182481,Black Sea,4780,153,2025-02-18,Tue,4,2
4781,00:30,4,,08:30,18:00,Turkey,Düzce,Merkez,ŞEREFIYE MAHALLESI ATATÜRK BULVARI ŞEREFIYE MAHALLESI NO:35/A  35/A,40.84119,31.163326,Black Sea,4781,153,2025-02-19,Wed,4,3
4785,00:30,4,,08:30,18:00,Turkey,Kastamonu,Merkez,KUZEYKENT MAHALLESI DEMIRCIOGLU CAD KUZEYKENT MAHALLESI NO:26/a  26/a,41.364937,33.769155,Black Sea,4785,91,2025-02-19,Wed,4,2
4786,00:30,4,,08:30,18:00,Turkey,Düzce,Merkez,AZMIMILLI MAHALLESI GAZHANE CADDESI AZMIMILLI MAHALLESI NO:4/A-B-C  4/A-B-C,40.83580089,31.1579708,Black Sea,4786,153,2025-02-17,Mon,4,1
4801,00:30,4,,08:30,18:00,Turkey,Kastamonu,Merkez,İNÖNÜ MAHALLESI HALIT RIFAT PAŞA CADDESI İNÖNÜ MAHALLESI NO:19  19,41.407507,33.796406,Black Sea,4801,91,2025-02-17,Mon,4,8
4803,00:30,4,,08:30,18:00,Turkey,Kastamonu,Tosya,İBNI SELIM MAHALLESI NAMAZGAH CADDESI İBNI SELIM MAHALLESI NO:25  25,41.01385704,34.04107775,Black Sea,4803,91,2025-02-22,Sat,4,2
4834,00:30,4,,08:30,18:00,Turkey,ANKARA,MAMAK,ÜREĞIL MAHALLESI 19 MAYIS BULV. 63/42,39.914617,32.948338,Central Anatolia,4834,144,2025-02-18,Tue,4,2
4838,00:30,4,,08:30,18:00,Turkey,ANKARA,ALTINDAĞ,KARAPÜRÇEK MAHALLESI 421. CADDESI 19,39.972405151856,32.969960980117,Central Anatolia,4838,144,2025-02-18,Tue,4,3
4852,00:30,4,,08:30,18:00,Turkey,ESKIŞEHIR,TEPEBAŞI,ULUÖNDER MAH ERZURUM KONGRESI CADDESI 5,39.7862683267945,30.4789945376659,Central Anatolia,4852,66,2025-02-17,Mon,4,3
4853,00:30,4,,08:30,18:00,Turkey,ANKARA,ÇANKAYA,KIZIL IRMAK MAHALLESİ UFUK ÜNIVERSITESI CADDESI 3,39.908779,32.811973,Central Anatolia,4853,156,2025-02-19,Wed,4,2
4855,00:30,4,,08:30,18:00,Turkey,ANKARA,YENIMAHALLE,ALACAATLI MAHALLESI ALACAATLI CADDESI 52,39.860077,32.678902,Central Anatolia,4855,162,2025-02-18,Tue,4,1
4886,00:30,4,,08:30,18:00,Turkey,ANKARA,ÇANKAYA,KIRKKONAKLAR MAHALLESI 316. CADDE 1,39.886107,32.886862,Central Anatolia,4886,143,2025-02-17,Mon,4,3
4887,00:30,4,,08:30,18:00,Turkey,ESKIŞEHIR,ODUNPAZARI,71 EVLER MAHALLESI GÜNELI SOKAK 2,39.74794,30.575691,Central Anatolia,4887,151,2025-02-19,Wed,4,8
4888,00:30,4,,08:30,18:00,Turkey,ANKARA,YENIMAHALLE,ALACAATLI CADDESI,39.870048,32.686533,Central Anatolia,4888,162,2025-02-18,Tue,4,3
4890,00:30,4,,08:30,18:00,Turkey,ANKARA,ÇANKAYA,ALACAATLI MAHALLESI 3346. CADDE 60/A,39.832234,32.698707,Central Anatolia,4890,160,2025-02-18,Tue,4,4
4894,00:30,4,,08:30,18:00,Turkey,ESKIŞEHIR,TEPEBAŞI,AŞAĞI SÖĞÜTÖNÜ MAHALLESI SÖĞÜY-ULUDERE YOLU 68,39.8045578002929,30.4471263885498,Central Anatolia,4894,66,2025-02-20,Thu,4,4
4895,00:30,4,,08:30,18:00,Turkey,ANKARA,ÇANKAYA,ATA MAH 4.CAD 161,39.871615,32.829721,Central Anatolia,4895,147,2025-02-21,Fri,4,2
4900,00:30,4,,08:30,18:00,Turkey,ESKIŞEHIR,TEPEBAŞI,BATIKENT MAHALLESI HARBIYE SOKAK 62/A,39.791469,30.457316,Central Anatolia,4900,66,2025-02-18,Tue,4,4
4901,00:30,4,,08:30,18:00,Turkey,ESKIŞEHIR,TEPEBAŞI,BATIKENT MAHALLESI KAPIKULE SOKAK 1/A,39.796192,30.442523,Central Anatolia,4901,66,2025-02-17,Mon,4,2
4902,00:30,4,,08:30,18:00,Turkey,ESKIŞEHIR,ODUNPAZARI,BÜYÜKDERE MAHALLESI FAKÜLTE SOKAK 4/G,39.751541,30.495743,Central Anatolia,4902,168,2025-02-19,Wed,4,4
4903,00:30,4,,08:30,18:00,Turkey,ESKIŞEHIR,ODUNPAZARI,BÜYÜKDERE MAHALLESI HALK CADDESI 144/A,39.751731,30.505797,Central Anatolia,4903,168,2025-02-19,Wed,4,2
4904,00:30,4,,08:30,18:00,Turkey,ANKARA,YENIMAHALLE,ÇIĞDEMTEPE MAHALLESI DEĞIRMENDERE CADDESI 51,39.990889,32.799131,Central Anatolia,4904,152,2025-02-18,Tue,4,3
4905,00:30,4,,08:30,18:00,Turkey,ANKARA,ÇANKAYA,NACI ÇAKIR MAHALLESI DIKMEN CADDESI 271,39.878094,32.837673,Central Anatolia,4905,147,2025-02-19,Wed,4,2
4906,00:30,4,,08:30,18:00,Turkey,ANKARA,MAMAK,EGE MAHALLESI NATOYOLU CADDESI 220,39.902907,32.917435,Central Anatolia,4906,146,2025-02-22,Sat,4,1
4913,00:30,4,,08:30,18:00,Turkey,ESKIŞEHIR,ODUNPAZARI,GÜNDOĞDU MAHALLESI BORSA CADDESI 27,39.764905,30.556172,Central Anatolia,4913,151,2025-02-19,Wed,4,7
4914,00:30,4,,08:30,18:00,Turkey,ANKARA,ÇANKAYA,İLKER CADDESI,39.86328125,32.8360710144043,Central Anatolia,4914,147,2025-02-21,Fri,4,3
4916,00:30,4,,08:30,18:00,Turkey,ESKIŞEHIR,ODUNPAZARI,ÇANKAYA MAHALLESI KARTOPU CADDESI 75/5,39.740886,30.530468,Central Anatolia,4916,168,2025-02-18,Tue,4,3
4918,00:30,4,,08:30,18:00,Turkey,ANKARA,ÇANKAYA,DUMLUPINAR BULV.,39.910408,32.775787,Central Anatolia,4918,155,2025-02-17,Mon,4,3
4920,00:30,4,,08:30,18:00,Turkey,ANKARA,GÖLBAŞI,KIZILCAŞAR MAHALLESI YAVUZ SULTAN SELIM BULVARI 406/1-2-3,39.830343,32.735436,Central Anatolia,4920,160,2025-02-21,Fri,4,3
4921,00:30,4,,08:30,18:00,Turkey,ESKIŞEHIR,ODUNPAZARI,KURTULUŞ MAHALLESI VATAN CADDESI 27/A,39.769162433688,30.530650839962,Central Anatolia,4921,168,2025-02-22,Sat,4,3
4923,00:30,4,,08:30,18:00,Turkey,ANKARA,YENIMAHALLE,MALAZGIRT MAH DIKMEN CAD 361/A,39.886483,32.716725,Central Anatolia,4923,157,2025-02-19,Wed,4,3
4924,00:30,4,,08:30,18:00,Turkey,ANKARA,MAMAK,MEHTAP MAHALLESI MAMAK CADDESI 76/A-1,39.934367,32.898267,Central Anatolia,4924,144,2025-02-18,Tue,4,4
4925,00:30,4,,08:30,18:00,Turkey,ANKARA,YENIMAHALLE,KENTKOOP MAHALLESI BATIKENT BULVARI 255/24-25,39.968506,32.716805,Central Anatolia,4925,142,2025-02-18,Tue,4,3
4926,00:30,4,,08:30,18:00,Turkey,ESKIŞEHIR,ODUNPAZARI,İSTIKLAL MAHALLESI M. KEMAL ATATÜRK CADDESI 74/A,39.771637,30.514791,Central Anatolia,4926,165,2025-02-20,Thu,4,3
4927,00:30,4,,08:30,18:00,Turkey,ANKARA,MAMAK,KUTLU MAHALLESI DEREBOYU CADDESI 48/A-B,39.917136,32.899732,Central Anatolia,4927,146,2025-02-21,Fri,4,3
4928,00:30,4,,08:30,18:00,Turkey,ANKARA,MAMAK,EGE MAHALLESI NATOYOLU CADDESI 292,39.89665,32.921324,Central Anatolia,4928,146,2025-02-18,Tue,4,2
4929,00:30,4,,08:30,18:00,Turkey,ESKIŞEHIR,ODUNPAZARI,VADIŞEHIR MAHALLESI 5617. SOKAK 815,39.740944,30.540368,Central Anatolia,4929,168,2025-02-17,Mon,4,4
4932,00:30,4,,08:30,18:00,Turkey,ANKARA,YENIMAHALLE,MEHMET AKIF ERSOY MAHALLESI ANADOLU BULVARI 77/1,39.966827,32.771829,Central Anatolia,4932,142,2025-02-21,Fri,4,3
4936,00:30,4,,08:30,18:00,Turkey,ANKARA,ÇANKAYA,YUKARI ÖVEÇLER MAHALLESI 1066 CADDESI 20/A,39.883389,32.823669,Central Anatolia,4936,147,2025-02-17,Mon,4,2
4937,00:30,4,,08:30,18:00,Turkey,ANKARA,ÇANKAYA,BEYTEPE MAHALLESI 5315. SK. B BLOK 1,39.866456,32.709991,Central Anatolia,4937,157,2025-02-18,Tue,4,3
4938,00:30,4,,08:30,18:00,Turkey,ANKARA,ÇANKAYA,YILDIZEVLER MAHALLESI 714. SOKAK 5/B/C,39.87778,32.863892,Central Anatolia,4938,143,2025-02-19,Wed,4,3
4939,00:30,4,,08:30,18:00,Turkey,ANKARA,ÇANKAYA,YUKARI DIKMEN MAHALLESI ALEXANDER DUPÇEK CADDESI 1/A-B-C,39.863104,32.854449,Central Anatolia,4939,148,2025-02-18,Tue,4,3
4940,00:30,4,,08:30,18:00,Turkey,ANKARA,MAMAK,CENGIZHAN MAHALLESI SULTAN FATIH CADDESI 18,39.894158,32.927598,Central Anatolia,4940,146,2025-02-18,Tue,4,3
4942,00:30,4,,08:30,18:00,Turkey,ANKARA,GÖLBAŞI,ŞAFAK MAHALLESI ŞHT. SELAMI ATABEY CADDESI 43/A-B,39.799712,32.811654,Central Anatolia,4942,160,2025-02-17,Mon,4,3
4943,00:30,4,,08:30,18:00,Turkey,ESKIŞEHIR,TEPEBAŞI,TUNALI MAHALLESI PROF. DR. ORHAN OĞUZ CADDESI 2/A,39.788385,30.517903,Central Anatolia,4943,165,2025-02-21,Fri,4,4
4946,00:30,4,,08:30,18:00,Turkey,ESKIŞEHIR,TEPEBAŞI,ULUÖNDER MAHALLESI HALIS SOKAK 71/1,39.789943,30.486105,Central Anatolia,4946,165,2025-02-18,Tue,4,3
4951,00:30,4,,08:30,18:00,Turkey,ANKARA,YENIMAHALLE,TURGUT ÖZAL MAHALLESI 2167. SOKAK 2/C,39.991154,32.709179,Central Anatolia,4951,144,2025-02-17,Mon,4,5
4957,00:30,4,,08:30,18:00,Turkey,ESKIŞEHIR,TEPEBAŞI,YEŞILTEPE MAHALLESI SINIRLAR SOKAK 2,39.7960553923992,30.4948728159354,Central Anatolia,4957,165,2025-02-22,Sat,4,4
4958,00:30,4,,08:30,18:00,Turkey,ESKIŞEHIR,ODUNPAZARI,YILDIZTEPE MAHALLESI ALI ÇETINKAYA CADDESI 11/A,39.755859,30.505078,Central Anatolia,4958,168,2025-02-19,Wed,4,3
4959,00:30,4,,08:30,18:00,Turkey,ESKIŞEHIR,ODUNPAZARI,YILDIZTEPE MAHALLESI Ş. YZB. T. GÜNGÖR CADDESI 94/A,39.759649,30.51287,Central Anatolia,4959,168,2025-02-20,Thu,4,5
4960,00:30,4,,08:30,18:00,Turkey,ESKIŞEHIR,ODUNPAZARI,İSTIKLAL MAHALLESI PORSUK BULVARI 3,39.776779,30.51714,Central Anatolia,4960,165,2025-02-20,Thu,4,4
4963,00:30,4,,08:30,18:00,Turkey,ANKARA,GÖLBAŞI,BAHÇELIEVLER MAHALLESI CEMAL GÜRSEL CADDESI 2/A,39.7926635742187,32.8066024780273,Central Anatolia,4963,160,2025-02-21,Fri,4,4
4969,00:30,4,,08:30,18:00,Turkey,ESKIŞEHIR,TEPEBAŞI,CUMHURIYE MAHALLESI CENGIZ TOPEL CADDESI 52/A,39.779259,30.516214,Central Anatolia,4969,165,2025-02-20,Thu,4,5
4974,00:30,4,,08:30,18:00,Turkey,ESKIŞEHIR,ODUNPAZARI,EMEK MAHALLESI ERTAŞ BULVARI 4/A,39.758409,30.556467,Central Anatolia,4974,151,2025-02-19,Wed,4,6
4976,00:30,4,,08:30,18:00,Turkey,ESKIŞEHIR,ODUNPAZARI,EMEK MAHALLESI ERTAŞ BULVARI 160,39.753063,30.56541,Central Anatolia,4976,151,2025-02-19,Wed,4,9
4984,00:30,4,,08:30,18:00,Turkey,ANKARA,ÇANKAYA,Demirtepe mh GMK BULVARI  16/B,39.922932,32.850292,Central Anatolia,4984,155,2025-02-21,Fri,4,1
5000,00:30,4,,08:30,18:00,Turkey,ESKIŞEHIR,TEPEBAŞI,ÖMERAĞA MAHALLESI ÇAĞLAYAN SOKAK 20,39.786247,30.527231,Central Anatolia,5000,165,2025-02-19,Wed,4,4
5006,00:30,4,,08:30,18:00,Turkey,ESKIŞEHIR,TEPEBAŞI,HACI ALI BEY MAHALLESI ÇELIKEL SOKAK 3,39.776633,30.520647,Central Anatolia,5006,165,2025-02-22,Sat,4,3
5009,00:30,4,,08:30,18:00,Turkey,ESKIŞEHIR,TEPEBAŞI,ŞEKER MAHALLESI SIVRIHISAR-1 CADDESI 119/A,39.777454,30.529868,Central Anatolia,5009,168,2025-02-22,Sat,4,4
5011,00:30,4,,08:30,18:00,Turkey,ANKARA,ÇANKAYA,HARBIYE MAHALLESI SOKULLU MEHMET PAŞA CADDESI 107,39.88271,32.836366,Central Anatolia,5011,147,2025-02-19,Wed,4,3
5025,00:30,4,,08:30,18:00,Turkey,ANKARA,YENIMAHALLE,BURÇ MAHALLESI SEVAL CADDESI 22/A-B,39.989106,32.800545,Central Anatolia,5025,152,2025-02-18,Tue,4,4
5030,00:30,4,,08:30,18:00,Turkey,ANKARA,KEÇIÖREN,ESERTEPE MAHALLESI TARHANLAR CADDESI 46,39.995174,32.834864,Central Anatolia,5030,152,2025-02-21,Fri,4,3
5034,00:30,4,,08:30,18:00,Turkey,ANKARA,MAMAK,YEŞILBAYIR MAHALLESI SAĞDUYU CADDESI 2,39.9122,32.9582,Central Anatolia,5034,144,2025-02-18,Tue,4,8
5038,00:30,4,,08:30,18:00,Turkey,ANKARA,KEÇIÖREN,UFUKTEPE MAHALLESI BAĞLUM BULVARI 55,40.015349,32.857402,Central Anatolia,5038,149,2025-02-22,Sat,4,1
5188,00:30,4,,08:30,18:00,Turkey,ANKARA,ALTINDAĞ,BAŞPINAR MAHALLESI 1656. CADDE 42/ABC,39.9705788324469,32.936908647854,Central Anatolia,5188,144,2025-02-18,Tue,4,9
5216,00:30,4,,08:30,18:00,Turkey,ANKARA,YENIMAHALLE,UĞUR MUMCU MAHALLESI FATIH SULTAN MEHMET BULVARI 308/A,39.946025,32.744575,Central Anatolia,5216,145,2025-02-18,Tue,4,2
5219,00:30,4,,08:30,18:00,Turkey,ÇANKIRI,MERKEZ,BUĞDAY PAZARI MAHALLESI ŞHT. TEVFIK PEHLIVAN CADDESI 4/29,40.598801,33.621096,Central Anatolia,5219,144,2025-02-19,Wed,4,3
5221,00:30,4,,08:30,18:00,Turkey,ANKARA,YENIMAHALLE,NATOYOLU CADDESI,39.903326,32.917391,Central Anatolia,5221,146,2025-02-22,Sat,4,2
5222,00:30,4,,08:30,18:00,Turkey,ANKARA,POLATLI,GAZI MAHALLESI ATATÜRK CADDESI 86,39.588299,32.145412,Central Anatolia,5222,160,2025-02-20,Thu,4,3
5224,00:30,4,,08:30,18:00,Turkey,ANKARA,KEÇIÖREN,KÖŞK MAHALLESI ANAVATAN CADDESI 36/A,40.004149,32.874307,Central Anatolia,5224,149,2025-02-22,Sat,4,3
5226,00:30,4,,08:30,18:00,Turkey,ANKARA,ALTINDAĞ,ÖRNEK MAHALLESI BABÜR CADDESI 73/A,39.953795,32.881728,Central Anatolia,5226,144,2025-02-18,Tue,4,5
5227,00:30,4,,08:30,18:00,Turkey,ANKARA,MAMAK,SAIMEKADIN MAHALLESI TIP FAKÜLTESI CADDESI 135/A,39.926486,32.895587,Central Anatolia,5227,144,2025-02-17,Mon,4,4
5231,00:30,4,,08:30,18:00,Turkey,ANKARA,MAMAK,TÜRKÖZÜ MAHALLESI 398. CADDESI 130/C,39.910362,32.893627,Central Anatolia,5231,146,2025-02-21,Fri,4,2
5232,00:30,4,,08:30,18:00,Turkey,ANKARA,ETIMESGUT,ALSANCAK MAHALLESI 2157. SOKAK 3/A,39.933701,32.65029,Central Anatolia,5232,163,2025-02-19,Wed,4,3
5233,00:30,4,,08:30,18:00,Turkey,ANKARA,ÇUBUK,ATATÜRK MAHALLESI KURBANTEPE CADDESI 3/A,40.23901,33.026563,Central Anatolia,5233,144,2025-02-22,Sat,4,5
5234,00:30,4,,08:30,18:00,Turkey,ANKARA,ETIMESGUT,1624 CD,39.940568,32.614903,Central Anatolia,5234,163,2025-02-17,Mon,4,6
5237,00:30,4,,08:30,18:00,Turkey,ANKARA,ETIMESGUT,BAĞLICA MAHALLESI BAĞLICA BULVARI 6/5-6-7-8,39.8879688929678,32.616494480473,Central Anatolia,5237,163,2025-02-21,Fri,4,4
5238,00:30,4,,08:30,18:00,Turkey,ANKARA,PURSAKLAR,MERKEZ MAHALLESI CUMHURIYET CADDESI 2,40.035227,32.902372,Central Anatolia,5238,144,2025-02-22,Sat,4,3
5244,00:30,4,,08:30,18:00,Turkey,ANKARA,MAMAK,PEYAMI SEFA MAHALLESI MEHMET ALI ALTUN CADDESI 155,39.918541,32.891694,Central Anatolia,5244,146,2025-02-21,Fri,4,1
5247,00:30,4,,08:30,18:00,Turkey,ANKARA,POLATLI,FATIH MAHALLESI BAKIR SOKAK 134/1,39.577537,32.128094,Central Anatolia,5247,160,2025-02-20,Thu,4,4
5248,00:30,4,,08:30,18:00,Turkey,ANKARA,MAMAK,GENERAL ZEKI DOĞAN MAHALLESI MUTLU CADDESI 1,39.917358,32.900409,Central Anatolia,5248,146,2025-02-21,Fri,4,4
5250,00:30,4,,08:30,18:00,Turkey,ANKARA,ETIMESGUT,30 AĞUSTOS MAHALLESI HIKMET ÖZER CADDESI 24/A,39.947056,32.661146,Central Anatolia,5250,163,2025-02-17,Mon,4,4
5252,00:30,4,,08:30,18:00,Turkey,ANKARA,KEÇIÖREN,ALTINPARK MAH İRFAN BAŞTUĞ CADDESI 170,39.9832935091911,32.8905444125972,Central Anatolia,5252,149,2025-02-17,Mon,4,2
5253,00:30,4,,08:30,18:00,Turkey,ANKARA,YENIMAHALLE,YAKACIK MAHALLESI 3585. CADDESI 10/A,40.028297,32.772555,Central Anatolia,5253,144,2025-02-20,Thu,4,5
5254,00:30,4,,08:30,18:00,Turkey,ANKARA,GÖLBAŞI,GAZIOSMANPAŞA MAHALLESI ANKARA CADDESI 12,39.801003,32.804998,Central Anatolia,5254,160,2025-02-17,Mon,4,4
5256,00:30,4,,08:30,18:00,Turkey,ANKARA,ÇANKAYA,ŞEHIT CENGIZ KARACA MAHALLESI SOKULLU MEHMET PAŞA CADDESI 192/A,39.87481,32.831974,Central Anatolia,5256,147,2025-02-17,Mon,4,3
5258,00:30,4,,08:30,18:00,Turkey,ANKARA,POLATLI,ŞEHITLIK MAHALLESI ELÇIBEY CADDESI 58G/A,39.58413,32.120587,Central Anatolia,5258,160,2025-02-20,Thu,4,5
5261,00:30,4,,08:30,18:00,Turkey,ANKARA,ETIMESGUT,SÜVARI MAHALLESI 1682. CADDESI 62,39.944725,32.648121,Central Anatolia,5261,163,2025-02-17,Mon,4,5
5262,00:30,4,,08:30,18:00,Turkey,ANKARA,KEÇIÖREN,ŞENLİK MAH DÜZ SOKAK 55/1A,39.9989949242158,32.8705342245574,Central Anatolia,5262,149,2025-02-22,Sat,4,4
5264,00:30,4,,08:30,18:00,Turkey,ANKARA,YENIMAHALLE,TURGUT ÖZAL MAHALLESI 1949. CADDESI 35,39.989698634658,32.723653391004,Central Anatolia,5264,144,2025-02-20,Thu,4,4
5265,00:30,4,,08:30,18:00,Turkey,ANKARA,ETIMESGUT,YUKARIYURTÇU MAHALLESI TOKİ YAPRACIK KONUTLARI 25,39.84293,32.546435,Central Anatolia,5265,160,2025-02-19,Wed,4,3
5267,00:30,4,,08:30,18:00,Turkey,ANKARA,KEÇIÖREN,YAYLA MAHALLESI ŞEHIT MUSTAFA ERCIGEZ CADDESI 69/A,39.99203,32.832258,Central Anatolia,5267,152,2025-02-21,Fri,4,4
5268,00:30,4,,08:30,18:00,Turkey,ANKARA,MAMAK,YEŞILBAYIR MAHALLESI SAĞDUYU CADDESI 58/A-B,39.904519,32.960055,Central Anatolia,5268,146,2025-02-20,Thu,4,2
5269,00:30,4,,08:30,18:00,Turkey,ANKARA,ÇUBUK,YILDIRIM BEYAZIT MAHALLESI ANKARA BULVARI 29/C-D-E,40.235686,33.033021,Central Anatolia,5269,144,2025-02-22,Sat,4,4
5273,00:30,4,,08:30,18:00,Turkey,ANKARA,MAMAK,BOĞAZIÇI MAHALLESI NEŞET ERTAŞ CADDESI 10/A,39.916758,32.932294,Central Anatolia,5273,144,2025-02-18,Tue,4,6
5283,00:30,4,,08:30,18:00,Turkey,ANKARA,ÇANKAYA,SANCAK MAHALLESI 521 SOKAK 1-A-B,39.867037,32.860824,Central Anatolia,5283,148,2025-02-19,Wed,4,3
5289,00:30,4,,08:30,18:00,Turkey,ESKIŞEHIR,TEPEBAŞI,BATIKENT MAHALLESI BÜLENT ECEVIT BULVARI 12,39.793147,30.453451,Central Anatolia,5289,66,2025-02-18,Tue,4,3
5290,00:30,4,,08:30,18:00,Turkey,ESKIŞEHIR,TEPEBAŞI,YENIBAĞLAR MAHALLESI YILMAZ BÜYÜKERŞEN BULVARI 57/AA,39.786421,30.508697,Central Anatolia,5290,165,2025-02-21,Fri,4,2
5291,00:30,4,,08:30,18:00,Turkey,ESKIŞEHIR,TEPEBAŞI,YENIBAĞLAR MAHALLESI SEYLAP CADDESI 20/A,39.787386,30.512136,Central Anatolia,5291,165,2025-02-21,Fri,4,3
5294,00:30,4,,08:30,18:00,Turkey,ESKIŞEHIR,ODUNPAZARI,EMEK MAHALLESI ERTAŞ CADDESI 244,39.748962,30.572741,Central Anatolia,5294,151,2025-02-19,Wed,4,4
5295,00:30,4,,08:30,18:00,Turkey,ESKIŞEHIR,ODUNPAZARI,EMEK MAHALLESI ERTAŞ BULVARI 69,39.755165,30.561881,Central Anatolia,5295,151,2025-02-19,Wed,4,3
5315,00:30,4,,08:30,18:00,Turkey,ESKIŞEHIR,ODUNPAZARI,71 EVLER MAHALLESI KAFKAS CAD. 39A,39.746166503091,30.5842709267007,Central Anatolia,5315,151,2025-02-19,Wed,4,10
5318,00:30,4,,08:30,18:00,Turkey,ESKIŞEHIR,ODUNPAZARI,GÜLTEPE MAHALLESI ÇIMENLIK SOKAK 2,39.753488,30.51467,Central Anatolia,5318,168,2025-02-20,Thu,4,4
5323,00:30,4,,08:30,18:00,Turkey,ESKIŞEHIR,ODUNPAZARI,YENIDOĞAN MAHALLESI SEVINÇ CADDESI 14,39.764149,30.551199,Central Anatolia,5323,151,2025-02-19,Wed,4,5
5335,00:30,4,,08:30,18:00,Turkey,KÜTAHYA,TAVŞANLI,HANIMÇEŞME MAHALLESI EKREM ÖDEMIŞ BULVARI 114,39.543974,29.507018,Aegean,5335,151,2025-02-20,Thu,4,5
5378,00:30,4,,08:30,18:00,Turkey,AFYONKARAHISAR,MERKEZ,GAZI MAHALLESI ADNAN MENDERES BULVARI 25,38.731435,30.564623,Aegean,5378,166,2025-02-18,Tue,4,4
5380,00:30,4,,08:30,18:00,Turkey,AFYONKARAHISAR,MERKEZ,NAZMI SAATÇI MAHALLESI 592. SOKAK 7,38.742722,30.569986,Aegean,5380,166,2025-02-21,Fri,4,3
5385,00:30,4,,08:30,18:00,Turkey,AFYONKARAHISAR,MERKEZ,YEŞILYURT MAHALLESI HÜSEYIN TIRYAKIOĞLU CADDESI 60/C,38.7818526248551,30.5303725471214,Aegean,5385,166,2025-02-17,Mon,4,4
5388,00:30,4,,08:30,18:00,Turkey,AFYONKARAHISAR,MERKEZ,SEYHAN CADDESI,38.760133,30.572162,Aegean,5388,166,2025-02-21,Fri,4,4
5410,00:30,4,,08:30,18:00,Turkey,UŞAK,MERKEZ,KEMALÖZ MAHALLESI 3. PIRLANTA SOKAK 2,38.671255,29.388937,Aegean,5410,166,2025-02-19,Wed,4,2
5412,00:30,4,,08:30,18:00,Turkey,UŞAK,MERKEZ,DIKILITAŞ MAHALLESI BARBAROS CADDESI 215,38.677933,29.387896,Aegean,5412,166,2025-02-22,Sat,4,4
5457,00:30,4,,08:30,18:00,Turkey,UŞAK,MERKEZ,CUMHURIYET MAHALLESI ORHAN DENGIZ BULVARI 12/A,38.669571,29.410912,Aegean,5457,166,2025-02-19,Wed,4,3
5537,00:30,4,,08:30,18:00,Turkey,ADANA,SEYHAN,CEMALPAŞA MAHALLESI ATATÜRK CADDESI 60,36.999915,35.323888,Mediterranean,5537,101,2025-02-18,Tue,4,1
5538,00:30,4,,08:30,18:00,Turkey,MERSIN,MEZITLI,ATATÜRK MAHALLESI GAZI MUSTAFA KEMAL BULVARI 670,36.7604904174805,34.5457344055176,Mediterranean,5538,774,2025-02-20,Thu,4,2
5539,00:30,4,,08:30,18:00,Turkey,ADANA,SEYHAN,SÜMER MAHALLESI ALTUN BULVARI 93/C,37.021793,35.315256,Mediterranean,5539,98,2025-02-20,Thu,4,1
5540,00:30,4,,08:30,18:00,Turkey,MERSIN,YENIŞEHIR,BATIKENT MAHALLESI İSTEMIHAN TALAY CADDESI 168/A,36.781536,34.554165,Mediterranean,5540,774,2025-02-19,Wed,4,1
5541,00:30,4,,08:30,18:00,Turkey,ADANA,ÇUKUROVA,BELEDIYE EVLERI MAHALLESI DR. SADIK AHMET BULVARI 36,37.036715,35.257368,Mediterranean,5541,110,2025-02-20,Thu,4,1
5542,00:30,4,,08:30,18:00,Turkey,ADANA,CEYHAN,BURHANIYE MAHALLESI İNÖNÜ BULVARI 49,37.023868,35.818339,Mediterranean,5542,96,2025-02-18,Tue,4,2
5543,00:30,4,,08:30,18:00,Turkey,ADANA,SEYHAN,REŞATBEY MAHALLESI CUMHURIYET CADDESI 33/4,36.995703,35.328863,Mediterranean,5543,99,2025-02-18,Tue,4,2
5544,00:30,4,,08:30,18:00,Turkey,MERSIN,YENIŞEHIR,ÇIFTLIKKÖY MAHALLESI ÜNIVERSITE CADDESI 716,36.7662086486816,34.5444297790527,Mediterranean,5544,774,2025-02-20,Thu,4,1
5545,00:30,4,,08:30,18:00,Turkey,MERSIN,MEZITLI,MERKEZ MAHALLESI GAZI MUSTAFA KEMAL BULVARI 570,36.7371978759766,34.515869140625,Mediterranean,5545,774,2025-02-20,Thu,4,3
5546,00:30,4,,08:30,18:00,Turkey,ADANA,SEYHAN,GÜRSELPAŞA MAHALLESI ALIYA İZZET BEGOVIÇ BULVARI 16,37.022521,35.257328,Mediterranean,5546,110,2025-02-18,Tue,4,2
5547,00:30,4,,08:30,18:00,Turkey,ADANA,SEYHAN,GÜRSELPAŞA MAHALLESI ALIYA İZZET BEGOVIC BULVARI 29/2A,37.0212704488081,35.2629098896944,Mediterranean,5547,110,2025-02-18,Tue,4,3
5548,00:30,4,,08:30,18:00,Turkey,MERSIN,YENIŞEHIR,GÜVENEVLER MAHALLESI HÜSEYIN OKAN MERZECI BULVARI 538/A,36.786453,34.582184,Mediterranean,5548,773,2025-02-19,Wed,4,1
5549,00:30,4,,08:30,18:00,Turkey,ADANA,ÇUKUROVA,GÜZELYALI MAHALLESI NEJAT UYGUR BULVARI 11/A,37.051386,35.285336,Mediterranean,5549,97,2025-02-22,Sat,4,3
5550,00:30,4,,08:30,18:00,Turkey,ADANA,ÇUKUROVA,GÜZELYALI MAHALLESI TURGUT ÖZAL BULVARI 72/B,37.046012,35.306873,Mediterranean,5550,98,2025-02-20,Thu,4,2
5551,00:30,4,,08:30,18:00,Turkey,ADANA,ÇUKUROVA,HUZUREVLERI MAHALLESI TURGUT ÖZAL BULVARI 214/B,37.049528,35.271284,Mediterranean,5551,97,2025-02-17,Mon,4,2
5552,00:30,4,,08:30,18:00,Turkey,ADANA,ÇUKUROVA,HUZUREVLERI MAHALLESI TÜRKMENBAŞI BULVARI 28/A,37.033289,35.27362,Mediterranean,5552,97,2025-02-17,Mon,4,4
5553,00:30,4,,08:30,18:00,Turkey,ADANA,ÇUKUROVA,MAHFESIĞMAZ MAHALLESI ŞEHITLER BULVARI 50/DE,37.0389671325684,35.3051528930664,Mediterranean,5553,98,2025-02-18,Tue,4,2
5554,00:30,4,,08:30,18:00,Turkey,ADANA,SEYHAN,KURTULUŞ MAHALLESI 64009. SOKAK 8/C,36.998503,35.319217,Mediterranean,5554,101,2025-02-22,Sat,4,1
5555,00:30,4,,08:30,18:00,Turkey,MERSIN,YENIŞEHIR,LIMONLUK MAHALLESI İSTEMIHAN TALAY CADDESI 22/A,36.7967483355075,34.5873582456583,Mediterranean,5555,100,2025-02-19,Wed,4,2
5556,00:30,4,,08:30,18:00,Turkey,ADANA,SEYHAN,YEŞILYURT MAHALLESI ALPARSLAN TÜRKEŞ BULVARI 63/A,37.030891,35.291922,Mediterranean,5556,97,2025-02-18,Tue,4,3
5557,00:30,4,,08:30,18:00,Turkey,ADANA,ÇUKUROVA,MAHFESIĞMAZ MAHALLESI ŞEHITLER BULVARI 70/F,37.0435358311994,35.3016295435547,Mediterranean,5557,97,2025-02-18,Tue,4,4
5558,00:30,4,,08:30,18:00,Turkey,ADANA,SEYHAN,MITHATPAŞA MAHALLESI MÜCAHITLER CADDESI 153,37.01121,35.305624,Mediterranean,5558,101,2025-02-18,Tue,4,3
5559,00:30,4,,08:30,18:00,Turkey,ADANA,SEYHAN,GÜRSELPAŞA MAHALLESI ALI BOZDOĞANOĞLU BULV. 48,37.023038,35.280253,Mediterranean,5559,97,2025-02-17,Mon,4,3
5560,00:30,4,,08:30,18:00,Turkey,ADANA,ÇUKUROVA,TOROS MAHALLESI 78104. SOKAK 2/A,37.035571,35.295627,Mediterranean,5560,97,2025-02-18,Tue,4,2
5561,00:30,4,,08:30,18:00,Turkey,ADANA,ÇUKUROVA,GÜZELYALI MAHALLESI TURGUT ÖZAL BULVARI 140/A,37.048681,35.290837,Mediterranean,5561,97,2025-02-19,Wed,4,1
5562,00:30,4,,08:30,18:00,Turkey,ADANA,ÇUKUROVA,HUZUREVLERI MAHALLESI KURTTEPE CADDESI 36/A,37.053642,35.276528,Mediterranean,5562,97,2025-02-20,Thu,4,3
5563,00:30,4,,08:30,18:00,Turkey,ADANA,SEYHAN,ZIYAPAŞA MAHALLESI BARAJ CADDESI 6,37.007114,35.324654,Mediterranean,5563,101,2025-02-18,Tue,4,2
5564,00:30,1,,08:30,18:00,Turkey,ADANA,SEYHAN,GÜRSELPAŞA MAHALLESI 75205. SOKAK 2/A,37.017693,35.252321,Mediterranean,5564,110,2025-02-18,Tue,1,1
5637,00:30,4,,08:30,18:00,Turkey,MERSIN,YENIŞEHIR,GÜVENEVLER MAHALLESI 1. CD. 1919 SK 1,36.786236,34.593528,Mediterranean,5637,773,2025-02-20,Thu,4,1
5677,00:30,4,,08:30,18:00,Turkey,OSMANIYE,MERKEZ,MEHMET AKIF ERSOY MAHALLESI ATATÜRK CADDESI 471,37.06252,36.239002,Mediterranean,5677,140,2025-02-19,Wed,4,2
5678,00:30,4,,08:30,18:00,Turkey,OSMANIYE,MERKEZ,RAHIME HATUN MAHALLESI KEMAL SATIR CADDESI 86,37.079249,36.243897,Mediterranean,5678,140,2025-02-19,Wed,4,3
5682,00:30,4,,08:30,18:00,Turkey,OSMANIYE,MERKEZ,RAHIME HATUN MAHALLESI 9022. SOKAK 2,37.085161,36.251428,Mediterranean,5682,140,2025-02-22,Sat,4,1
5691,00:30,4,,08:30,18:00,Turkey,MERSIN,ERDEMLI,ALATA MAHALLESI ALPARSLAN TÜRKEŞ BULVARI 649/A,36.609500408622,34.315937819817,Mediterranean,5691,59,2025-02-20,Thu,4,2
5699,00:30,4,,08:30,18:00,Turkey,ADANA,SEYHAN,PINAR MAHALLESI A. YAŞAR BAYBOĞAN CADDESI 7/Z,37.0191655545357,35.2584750205278,Mediterranean,5699,110,2025-02-18,Tue,4,4
5700,00:30,1,,08:30,18:00,Turkey,ADANA,CEYHAN,NAMIK KEMAL MAH 56/101 56,37.013171,35.826923,Mediterranean,5700,96,2025-02-18,Tue,1,1
5701,00:30,4,,08:30,18:00,Turkey,ADANA,SEYHAN,ONUR MAHALLESI ŞAKIR PAŞA CADDESI 308/A,36.987476,35.261814,Mediterranean,5701,101,2025-02-17,Mon,4,3
5705,00:30,4,,08:30,18:00,Turkey,ADANA,SEYHAN,FEVZIPAŞA MAHALLESI VEFA CADDESI 217/A,37.001246,35.267563,Mediterranean,5705,101,2025-02-17,Mon,4,2
5714,00:30,4,,08:30,18:00,Turkey,OSMANIYE,MERKEZ,MERKEZ MAHALLESI KARABAHADIR SOKAK 88/2-1,37.0631915596618,36.2026556667965,Mediterranean,5714,140,2025-02-21,Fri,4,2
5736,00:30,4,,08:30,18:00,Turkey,GAZIANTEP,ŞAHINBEY,23 NISAN MAHALLESI YAVUZ SULTAN SELIM CADDESI 182,37.0437278747559,37.3295860290527,Southeastern Anatolia,5736,176,2025-02-18,Tue,4,1
5737,00:30,4,,08:30,18:00,Turkey,GAZIANTEP,ŞEHITKAMIL,BATIKENT MAHALLESI KÜRŞAT TÜZMEN BULVARI 32,37.0757,37.334108,Southeastern Anatolia,5737,158,2025-02-19,Wed,4,1
5738,00:30,4,,08:30,18:00,Turkey,GAZIANTEP,ŞEHITKAMIL,DEĞIRMIÇEM MAHALLESI GAZI MUHTAR PAŞA BULVARI 15,37.067448,37.368727,Southeastern Anatolia,5738,141,2025-02-19,Wed,4,4
5739,00:30,4,,08:30,18:00,Turkey,GAZIANTEP,ŞEHITKAMIL,GÜVENEVLER MAHALLESI 38. CADDESI 5/B-C,37.08799,37.339609,Southeastern Anatolia,5739,141,2025-02-20,Thu,4,6
5740,00:30,4,,08:30,18:00,Turkey,GAZIANTEP,ŞAHINBEY,KARATAŞ MAHALLESI 384. CADDE 6/A,37.015262,37.344804,Southeastern Anatolia,5740,176,2025-02-21,Fri,4,5
5741,00:30,4,,08:30,18:00,Turkey,GAZIANTEP,ŞEHITKAMIL,SARIGÜLLÜK MAHALLESI FEVZI ÇAKMAK BULVARI 27,37.066889837484,37.361189424992,Southeastern Anatolia,5741,158,2025-02-17,Mon,4,1
5742,00:30,4,,08:30,18:00,Turkey,GAZIANTEP,ŞAHINBEY,BINEVLER MAHALLESI ÜNIVERSITE BULVARI 154,37.053327,37.336182,Southeastern Anatolia,5742,176,2025-02-20,Thu,4,2
