[
    {
        "CustomerId":2,
        "VisitDuration":"00:30",
        "VisitFreq":4,
        "MustVisitDays":"Sat",
        "EligibilityBeginTime (hh:mm)":"08:30",
        "EligibilityEndTime (hh:mm)":"12:00",
        "Country":"Turkey",
        "City":"ERZURUM",
        "District":"YAKUTIYE",
        "AddressText":"\u0130STASYON MAHALLESI11111 \u0130STASYON CADDESI11111  1",
        "Latitude":39.913934,
        "Longitude":41.270719
    },
    {
        "CustomerId":7,
        "VisitDuration":"00:30",
        "VisitFreq":4,
        "MustVisitDays":null,
        "EligibilityBeginTime (hh:mm)":"08:30",
        "EligibilityEndTime (hh:mm)":"18:00",
        "Country":"Turkey",
        "City":"ADANA",
        "District":"Y\u00dcRE\u011eIR",
        "AddressText":"19 MAYIS MAHALLESI \u00c7UKUROVA CADDESI 300",
        "Latitude":36.980521,
        "Longitude":35.367678
    },
    {
        "CustomerId":13,
        "VisitDuration":"00:30",
        "VisitFreq":4,
        "MustVisitDays":null,
        "EligibilityBeginTime (hh:mm)":"08:30",
        "EligibilityEndTime (hh:mm)":"18:00",
        "Country":"Turkey",
        "City":"Karab\u00fck",
        "District":"Safranbolu",
        "AddressText":"5000 EVLER 75. YIL MH 71. SOKAK 5000 EVLER 75. YIL MH NO:6  6",
        "Latitude":41.233278,
        "Longitude":32.66107
    },
    {
        "CustomerId":17,
        "VisitDuration":"00:30",
        "VisitFreq":1,
        "MustVisitDays":null,
        "EligibilityBeginTime (hh:mm)":"08:30",
        "EligibilityEndTime (hh:mm)":"18:00",
        "Country":"Turkey",
        "City":"MANISA",
        "District":"YUNUSEMRE",
        "AddressText":"75. YIL MAHALLESI BAHRI SARITEPE CADDESI 75. YIL MAHALLESI NO:71\/A  71\/A",
        "Latitude":38.6146272369,
        "Longitude":27.3817652423
    },
    {
        "CustomerId":18,
        "VisitDuration":"00:30",
        "VisitFreq":1,
        "MustVisitDays":null,
        "EligibilityBeginTime (hh:mm)":"08:30",
        "EligibilityEndTime (hh:mm)":"18:00",
        "Country":"Turkey",
        "City":"\u0130ZMIR",
        "District":"KONAK",
        "AddressText":"Kemeralt\u0131 871. SOKAK Kemeralt\u0131 NO:52  52",
        "Latitude":38.333603,
        "Longitude":27.133406
    },
    {
        "CustomerId":24,
        "VisitDuration":"00:30",
        "VisitFreq":4,
        "MustVisitDays":null,
        "EligibilityBeginTime (hh:mm)":"08:30",
        "EligibilityEndTime (hh:mm)":"18:00",
        "Country":"Turkey",
        "City":"MERSIN",
        "District":"TOROSLAR",
        "AddressText":"AKBELEN MAHALLESI AKBELEN BULVARI 172",
        "Latitude":36.831359,
        "Longitude":34.591038
    },
    {
        "CustomerId":29,
        "VisitDuration":"00:30",
        "VisitFreq":4,
        "MustVisitDays":null,
        "EligibilityBeginTime (hh:mm)":"08:30",
        "EligibilityEndTime (hh:mm)":"18:00",
        "Country":"Turkey",
        "City":"\u00c7ORUM",
        "District":"MERKEZ",
        "AddressText":"KUNDUZHAN MAHALLESI TOPTANCILAR SITESI  6",
        "Latitude":40.535773,
        "Longitude":34.921053
    },
    {
        "CustomerId":32,
        "VisitDuration":"00:30",
        "VisitFreq":4,
        "MustVisitDays":null,
        "EligibilityBeginTime (hh:mm)":"08:30",
        "EligibilityEndTime (hh:mm)":"18:00",
        "Country":"Turkey",
        "City":"GAZIANTEP",
        "District":"\u015eEHITKAMIL",
        "AddressText":"BUDAK MAHALLESI ALI FUAT CEBESOY BULVARI 44",
        "Latitude":37.073002,
        "Longitude":37.368371
    },
    {
        "CustomerId":33,
        "VisitDuration":"00:30",
        "VisitFreq":4,
        "MustVisitDays":null,
        "EligibilityBeginTime (hh:mm)":"08:30",
        "EligibilityEndTime (hh:mm)":"18:00",
        "Country":"Turkey",
        "City":"GAZIANTEP",
        "District":"\u015eEHITKAMIL",
        "AddressText":"BUDAK MAHALLESI ALI FUAT CEBESOY BULVARI 40",
        "Latitude":37.072963,
        "Longitude":37.366818
    },
    {
        "CustomerId":40,
        "VisitDuration":"00:30",
        "VisitFreq":4,
        "MustVisitDays":null,
        "EligibilityBeginTime (hh:mm)":"08:30",
        "EligibilityEndTime (hh:mm)":"18:00",
        "Country":"Turkey",
        "City":"ESKI\u015eEHIR",
        "District":"ODUNPAZARI",
        "AddressText":"AR\u0130F\u0130YE MAH \u0130KI EYL\u00dcL CADDESI 90\/A",
        "Latitude":39.7691159172,
        "Longitude":30.5215377459
    },
    {
        "CustomerId":44,
        "VisitDuration":"00:30",
        "VisitFreq":4,
        "MustVisitDays":null,
        "EligibilityBeginTime (hh:mm)":"08:30",
        "EligibilityEndTime (hh:mm)":"18:00",
        "Country":"Turkey",
        "City":"Mu\u015f",
        "District":"Merkez",
        "AddressText":"h\u00fcrriyet mahallesi ATAT\u00dcRK BULVARI SUBAY GAZINOSU KARSISI   55",
        "Latitude":38.740604,
        "Longitude":41.496265
    },
    {
        "CustomerId":45,
        "VisitDuration":"00:30",
        "VisitFreq":4,
        "MustVisitDays":null,
        "EligibilityBeginTime (hh:mm)":"08:30",
        "EligibilityEndTime (hh:mm)":"18:00",
        "Country":"Turkey",
        "City":"Zonguldak",
        "District":"Devrek",
        "AddressText":"\u0130SMET PA\u015eA MAHALLESI DR. VEYSEL ATASOY CADDESI \u0130SMET PA\u015eA MAHALLESI NO:8\/A  8\/A",
        "Latitude":41.218011,
        "Longitude":31.954075
    },
    {
        "CustomerId":51,
        "VisitDuration":"00:30",
        "VisitFreq":1,
        "MustVisitDays":null,
        "EligibilityBeginTime (hh:mm)":"08:30",
        "EligibilityEndTime (hh:mm)":"18:00",
        "Country":"Turkey",
        "City":"MARDIN",
        "District":"KIZILTEPE",
        "AddressText":"TEPEBA\u015eI MAHALLESI 151. SOKAK  10",
        "Latitude":37.189424,
        "Longitude":40.59547
    },
    {
        "CustomerId":56,
        "VisitDuration":"00:30",
        "VisitFreq":4,
        "MustVisitDays":null,
        "EligibilityBeginTime (hh:mm)":"08:30",
        "EligibilityEndTime (hh:mm)":"18:00",
        "Country":"Turkey",
        "City":"Edirne",
        "District":"Merkez",
        "AddressText":"B.Cam\u0131 Mah. In\u00f6n\u00fc Cad. No:66 Kesan \/ Ed\u0131rne \/Merkez\/Ed\u0131rne ",
        "Latitude":40.852958,
        "Longitude":26.631553
    },
    {
        "CustomerId":59,
        "VisitDuration":"00:30",
        "VisitFreq":4,
        "MustVisitDays":null,
        "EligibilityBeginTime (hh:mm)":"08:30",
        "EligibilityEndTime (hh:mm)":"18:00",
        "Country":"Turkey",
        "City":"DIYARBAKIR",
        "District":"BA\u011eLAR",
        "AddressText":"BA\u011eCILAR MAHALLESI 1101. SOKAK  12",
        "Latitude":37.92775,
        "Longitude":40.180216
    },
    {
        "CustomerId":61,
        "VisitDuration":"00:30",
        "VisitFreq":1,
        "MustVisitDays":null,
        "EligibilityBeginTime (hh:mm)":"08:30",
        "EligibilityEndTime (hh:mm)":"18:00",
        "Country":"Turkey",
        "City":"Batman",
        "District":"Merkez",
        "AddressText":"BAPLAR MAH BA\u011eLAR, KIBRIS \u015eEHITLERI BLV.  203",
        "Latitude":37.8938134,
        "Longitude":41.1226611
    },
    {
        "CustomerId":67,
        "VisitDuration":"00:30",
        "VisitFreq":4,
        "MustVisitDays":null,
        "EligibilityBeginTime (hh:mm)":"08:30",
        "EligibilityEndTime (hh:mm)":"18:00",
        "Country":"Turkey",
        "City":"Edirne",
        "District":"Merkez",
        "AddressText":"Bal\u0131k Pazar\u0131 Cd.No:55 Ed\u0131rne \/Merkez\/Ed\u0131rne ",
        "Latitude":41.674116,
        "Longitude":26.551221
    },
    {
        "CustomerId":73,
        "VisitDuration":"00:30",
        "VisitFreq":4,
        "MustVisitDays":null,
        "EligibilityBeginTime (hh:mm)":"08:30",
        "EligibilityEndTime (hh:mm)":"18:00",
        "Country":"Turkey",
        "City":"ANKARA",
        "District":"MAMAK",
        "AddressText":"BA\u015eAK MAHALLESI KARAP\u00dcR\u00c7EK CADDESI 10\/A",
        "Latitude":39.966753,
        "Longitude":32.949325
    },
    {
        "CustomerId":82,
        "VisitDuration":"00:30",
        "VisitFreq":4,
        "MustVisitDays":null,
        "EligibilityBeginTime (hh:mm)":"08:30",
        "EligibilityEndTime (hh:mm)":"18:00",
        "Country":"Turkey",
        "City":"MERSIN",
        "District":"ERDEMLI",
        "AddressText":"AKDENIZ MAHALLESI ALPARSLAN T\u00dcRKE\u015e BULVARI 513",
        "Latitude":36.602887,
        "Longitude":34.304702
    },
    {
        "CustomerId":85,
        "VisitDuration":"00:30",
        "VisitFreq":4,
        "MustVisitDays":null,
        "EligibilityBeginTime (hh:mm)":"08:30",
        "EligibilityEndTime (hh:mm)":"18:00",
        "Country":"Turkey",
        "City":"ADANA",
        "District":"\u00c7UKUROVA",
        "AddressText":"BEYAZEVLER MAHALLESI B\u00dcLENT ANGIN BULVARI 8\/A",
        "Latitude":37.031401,
        "Longitude":35.313907
    },
    {
        "CustomerId":86,
        "VisitDuration":"00:30",
        "VisitFreq":4,
        "MustVisitDays":null,
        "EligibilityBeginTime (hh:mm)":"08:30",
        "EligibilityEndTime (hh:mm)":"18:00",
        "Country":"Turkey",
        "City":"Tekirda\u011f",
        "District":"Malkara",
        "AddressText":"Cam\u0131 At\u0131k Mh.Seh\u0131tl\u0131k Cd.No:32 Malkara \/ Tek\u0131rdag \/Merkez\/Tek\u0131rdag ",
        "Latitude":40.891984,
        "Longitude":26.903284
    },
    {
        "CustomerId":87,
        "VisitDuration":"00:30",
        "VisitFreq":4,
        "MustVisitDays":null,
        "EligibilityBeginTime (hh:mm)":"08:30",
        "EligibilityEndTime (hh:mm)":"18:00",
        "Country":"Turkey",
        "City":"Kastamonu",
        "District":"Kastamonu Merkez",
        "AddressText":"CEBRAIL MAHALLESI KIRK\u00c7E\u015eME CADDESI CEBRAIL MAHALLESI NO:16  16",
        "Latitude":41.377877,
        "Longitude":33.779084
    },
    {
        "CustomerId":88,
        "VisitDuration":"00:30",
        "VisitFreq":4,
        "MustVisitDays":null,
        "EligibilityBeginTime (hh:mm)":"08:30",
        "EligibilityEndTime (hh:mm)":"18:00",
        "Country":"Turkey",
        "City":"Zonguldak",
        "District":"Zonguldak Merkez",
        "AddressText":"ME\u015eRUTIYET MAHALLESI UZUN MEHMET CADDESI ME\u015eRUTIYET MAHALLESI NO:15  15",
        "Latitude":41.45363,
        "Longitude":31.788514
    },
    {
        "CustomerId":95,
        "VisitDuration":"00:30",
        "VisitFreq":4,
        "MustVisitDays":null,
        "EligibilityBeginTime (hh:mm)":"08:30",
        "EligibilityEndTime (hh:mm)":"18:00",
        "Country":"Turkey",
        "City":"Van",
        "District":"Tusba",
        "AddressText":"Cumhur\u0131yet Mah.No:251 Emn\u0131yet Kant.Kars\u0131s\u0131 ",
        "Latitude":38.487185,
        "Longitude":43.366127
    },
    {
        "CustomerId":96,
        "VisitDuration":"00:30",
        "VisitFreq":4,
        "MustVisitDays":null,
        "EligibilityBeginTime (hh:mm)":"08:30",
        "EligibilityEndTime (hh:mm)":"18:00",
        "Country":"Turkey",
        "City":"BITLIS",
        "District":"TATVAN",
        "AddressText":"SAHIL MAHALLESI CUMHURIYET CADDESI  163",
        "Latitude":38.4955446,
        "Longitude":42.2863129
    },
    {
        "CustomerId":97,
        "VisitDuration":"00:30",
        "VisitFreq":1,
        "MustVisitDays":null,
        "EligibilityBeginTime (hh:mm)":"08:30",
        "EligibilityEndTime (hh:mm)":"18:00",
        "Country":"Turkey",
        "City":"MANISA",
        "District":"SARUHANLI",
        "AddressText":"ATAT\u00dcRK MAHALLESI 7 EYL\u00dcL CADDESI ATAT\u00dcRK MAHALLESI NO:112  112",
        "Latitude":38.7340767854,
        "Longitude":27.5734249553
    },
    {
        "CustomerId":98,
        "VisitDuration":"00:30",
        "VisitFreq":4,
        "MustVisitDays":null,
        "EligibilityBeginTime (hh:mm)":"08:30",
        "EligibilityEndTime (hh:mm)":"18:00",
        "Country":"Turkey",
        "City":"MERSIN",
        "District":"TOROSLAR",
        "AddressText":"\u00c7A\u011eDA\u015eKENT MAHALLESI MIMAR SINAN BULVARI 134",
        "Latitude":36.838632,
        "Longitude":34.621339
    },
    {
        "CustomerId":101,
        "VisitDuration":"00:30",
        "VisitFreq":4,
        "MustVisitDays":null,
        "EligibilityBeginTime (hh:mm)":"08:30",
        "EligibilityEndTime (hh:mm)":"18:00",
        "Country":"Turkey",
        "City":"ESKI\u015eEHIR",
        "District":"ODUNPAZARI",
        "AddressText":"\u00c7ANKAYA MAHALLESI HUZURLU SOKAK 11",
        "Latitude":39.754589,
        "Longitude":30.53481
    },
    {
        "CustomerId":102,
        "VisitDuration":"00:30",
        "VisitFreq":4,
        "MustVisitDays":null,
        "EligibilityBeginTime (hh:mm)":"08:30",
        "EligibilityEndTime (hh:mm)":"18:00",
        "Country":"Turkey",
        "City":"Bart\u0131n",
        "District":"Bartin Merkez",
        "AddressText":"G\u00d6LBUCA\u011eI MAHALLESI ESKI HASTANE CADDESI G\u00d6LBUCA\u011eI MAHALLESI NO:50\/A  50\/A",
        "Latitude":41.627731,
        "Longitude":32.329104
    },
    {
        "CustomerId":111,
        "VisitDuration":"00:30",
        "VisitFreq":4,
        "MustVisitDays":null,
        "EligibilityBeginTime (hh:mm)":"08:30",
        "EligibilityEndTime (hh:mm)":"18:00",
        "Country":"Turkey",
        "City":"MU\u015e",
        "District":"MERKEZ",
        "AddressText":"MINARE MAHALLESI PTT CADDESI  2",
        "Latitude":38.732655,
        "Longitude":41.492441
    },
    {
        "CustomerId":115,
        "VisitDuration":"00:30",
        "VisitFreq":4,
        "MustVisitDays":null,
        "EligibilityBeginTime (hh:mm)":"08:30",
        "EligibilityEndTime (hh:mm)":"18:00",
        "Country":"Turkey",
        "City":"DIYARBAKIR",
        "District":"KAYAPINAR",
        "AddressText":"MEZOPOTAMYA MAHALLESI 606. SOKAK  1",
        "Latitude":37.935672,
        "Longitude":40.149432
    },
    {
        "CustomerId":117,
        "VisitDuration":"00:30",
        "VisitFreq":1,
        "MustVisitDays":null,
        "EligibilityBeginTime (hh:mm)":"08:30",
        "EligibilityEndTime (hh:mm)":"18:00",
        "Country":"Turkey",
        "City":"BATMAN",
        "District":"MERKEZ",
        "AddressText":"PINARBA\u015eI MAHALLESI OTOPARK  1",
        "Latitude":37.896072,
        "Longitude":41.129741
    },
    {
        "CustomerId":119,
        "VisitDuration":"00:30",
        "VisitFreq":4,
        "MustVisitDays":null,
        "EligibilityBeginTime (hh:mm)":"08:30",
        "EligibilityEndTime (hh:mm)":"18:00",
        "Country":"Turkey",
        "City":"ADANA",
        "District":"SEYHAN",
        "AddressText":"D\u00d6\u015eEME MAHALLESI DR. ALI MENTE\u015eO\u011eLU CADDESI 1",
        "Latitude":36.990281,
        "Longitude":35.320858
    },
    {
        "CustomerId":120,
        "VisitDuration":"00:30",
        "VisitFreq":4,
        "MustVisitDays":null,
        "EligibilityBeginTime (hh:mm)":"08:30",
        "EligibilityEndTime (hh:mm)":"18:00",
        "Country":"Turkey",
        "City":"KAHRAMANMARA\u015e",
        "District":"DULKADIRO\u011eLU",
        "AddressText":"DULKADIRO\u011eLU MAHALLESI TEVFIK KADIO\u011eLU BULVARI 108\/A",
        "Latitude":37.581069,
        "Longitude":36.94561
    },
    {
        "CustomerId":122,
        "VisitDuration":"00:30",
        "VisitFreq":4,
        "MustVisitDays":null,
        "EligibilityBeginTime (hh:mm)":"08:30",
        "EligibilityEndTime (hh:mm)":"18:00",
        "Country":"Turkey",
        "City":"ERZURUM",
        "District":"PALAND\u00d6KEN",
        "AddressText":"M\u00dcFT\u00dc SOLAKZADE MAHALLESI ALVARLI MEHMET EFENDI CADDESI  12",
        "Latitude":39.884759,
        "Longitude":41.264235
    },
    {
        "CustomerId":124,
        "VisitDuration":"00:30",
        "VisitFreq":4,
        "MustVisitDays":null,
        "EligibilityBeginTime (hh:mm)":"08:30",
        "EligibilityEndTime (hh:mm)":"18:00",
        "Country":"Turkey",
        "City":"TRABZON",
        "District":"ORTAHISAR",
        "AddressText":"3 NOLU ERDO\u011eDU MAHALLESI SO\u011eUKSU CADDESI  247",
        "Latitude":40.99469,
        "Longitude":39.706028
    },
    {
        "CustomerId":125,
        "VisitDuration":"00:30",
        "VisitFreq":4,
        "MustVisitDays":null,
        "EligibilityBeginTime (hh:mm)":"08:30",
        "EligibilityEndTime (hh:mm)":"18:00",
        "Country":"Turkey",
        "City":"ORDU",
        "District":"ALTINORDU",
        "AddressText":"BAH\u00c7ELIEVLER MAHALLESI EROL ATA\u015eAN BULVARI  45299",
        "Latitude":40.980997,
        "Longitude":37.897521
    },
    {
        "CustomerId":131,
        "VisitDuration":"00:30",
        "VisitFreq":4,
        "MustVisitDays":null,
        "EligibilityBeginTime (hh:mm)":"08:30",
        "EligibilityEndTime (hh:mm)":"18:00",
        "Country":"Turkey",
        "City":"Kocaeli",
        "District":"Derince",
        "AddressText":"KURU\u00c7E\u015eME FATIH MAHALLESI BARI\u015e CADDESI KURU\u00c7E\u015eME FATIH MAHALLESI NO:18\/A  18\/A",
        "Latitude":40.765046,
        "Longitude":29.873649
    },
    {
        "CustomerId":136,
        "VisitDuration":"00:30",
        "VisitFreq":1,
        "MustVisitDays":null,
        "EligibilityBeginTime (hh:mm)":"08:30",
        "EligibilityEndTime (hh:mm)":"18:00",
        "Country":"Turkey",
        "City":"MARDIN",
        "District":"KIZILTEPE",
        "AddressText":"\u0130PEK MAHALLESI CEYLANPINAR CADDESI  139\/A",
        "Latitude":37.178497,
        "Longitude":40.562054
    },
    {
        "CustomerId":139,
        "VisitDuration":"00:30",
        "VisitFreq":4,
        "MustVisitDays":null,
        "EligibilityBeginTime (hh:mm)":"08:30",
        "EligibilityEndTime (hh:mm)":"18:00",
        "Country":"Turkey",
        "City":"MERSIN",
        "District":"AKDENIZ",
        "AddressText":"TURGUTREIS MAHALLESI \u0130STIKLAL CADDESI 1",
        "Latitude":36.794072,
        "Longitude":34.613784
    },
    {
        "CustomerId":140,
        "VisitDuration":"00:30",
        "VisitFreq":4,
        "MustVisitDays":null,
        "EligibilityBeginTime (hh:mm)":"08:30",
        "EligibilityEndTime (hh:mm)":"18:00",
        "Country":"Turkey",
        "City":"ANTALYA",
        "District":"ALANYA",
        "AddressText":"G\u00dcLLER PINARI MAHALLESI HACET CADDESI G\u00dcLLER PINARI MAHALLESI NO:48\/B  48\/B",
        "Latitude":36.548242,
        "Longitude":32.006869
    },
    {
        "CustomerId":144,
        "VisitDuration":"00:30",
        "VisitFreq":4,
        "MustVisitDays":null,
        "EligibilityBeginTime (hh:mm)":"08:30",
        "EligibilityEndTime (hh:mm)":"18:00",
        "Country":"Turkey",
        "City":"ANKARA",
        "District":"YENIMAHALLE",
        "AddressText":"MACUN MAHALLESI 195. CADDESI 131\/37 ",
        "Latitude":39.946482,
        "Longitude":32.766533
    },
    {
        "CustomerId":152,
        "VisitDuration":"00:30",
        "VisitFreq":4,
        "MustVisitDays":null,
        "EligibilityBeginTime (hh:mm)":"08:30",
        "EligibilityEndTime (hh:mm)":"18:00",
        "Country":"Turkey",
        "City":"Kocaeli",
        "District":"K\u00f6rfez",
        "AddressText":"G\u00dcNEY MAHALLESI TU\u011eRUL CADDESI G\u00dcNEY MAHALLESI NO:24\/A  24\/A",
        "Latitude":40.75935364,
        "Longitude":29.78576851
    },
    {
        "CustomerId":153,
        "VisitDuration":"00:30",
        "VisitFreq":4,
        "MustVisitDays":null,
        "EligibilityBeginTime (hh:mm)":"08:30",
        "EligibilityEndTime (hh:mm)":"18:00",
        "Country":"Turkey",
        "City":"GAZIANTEP",
        "District":"\u015eAHINBEY",
        "AddressText":"G\u00dcNEYKENT MAHALLESI 102250. CADDESI 24",
        "Latitude":37.028305,
        "Longitude":37.321991
    },
    {
        "CustomerId":166,
        "VisitDuration":"00:30",
        "VisitFreq":1,
        "MustVisitDays":null,
        "EligibilityBeginTime (hh:mm)":"08:30",
        "EligibilityEndTime (hh:mm)":"18:00",
        "Country":"Turkey",
        "City":"BATMAN",
        "District":"MERKEZ",
        "AddressText":"H\u00dcRRIYET MAHALLESI 27. CADDESI  28",
        "Latitude":37.876204,
        "Longitude":41.115827
    },
    {
        "CustomerId":168,
        "VisitDuration":"00:30",
        "VisitFreq":4,
        "MustVisitDays":null,
        "EligibilityBeginTime (hh:mm)":"08:30",
        "EligibilityEndTime (hh:mm)":"18:00",
        "Country":"Turkey",
        "City":"BILECIK",
        "District":"BOZ\u00dcY\u00dcK",
        "AddressText":"YENI MAHALLESI \u0130SMET \u0130N\u00d6N\u00dc CADDESI 116",
        "Latitude":39.904669,
        "Longitude":30.046718
    },
    {
        "CustomerId":171,
        "VisitDuration":"00:30",
        "VisitFreq":4,
        "MustVisitDays":null,
        "EligibilityBeginTime (hh:mm)":"08:30",
        "EligibilityEndTime (hh:mm)":"18:00",
        "Country":"Turkey",
        "City":"\u015eANLIURFA",
        "District":"HALILIYE",
        "AddressText":"\u0130MAM BAKIR MAHALLESI RECEP TAYYIP ERDO\u011eAN BULVARI 148\/1",
        "Latitude":37.16281,
        "Longitude":38.819203
    },
    {
        "CustomerId":175,
        "VisitDuration":"00:30",
        "VisitFreq":1,
        "MustVisitDays":null,
        "EligibilityBeginTime (hh:mm)":"08:30",
        "EligibilityEndTime (hh:mm)":"18:00",
        "Country":"Turkey",
        "City":"MARDIN",
        "District":"KIZILTEPE",
        "AddressText":"\u0130PEK MAHALLESI \u015eEHITLIK CADDESI  75\/A",
        "Latitude":37.180443,
        "Longitude":40.578413
    },
    {
        "CustomerId":182,
        "VisitDuration":"00:30",
        "VisitFreq":4,
        "MustVisitDays":null,
        "EligibilityBeginTime (hh:mm)":"08:30",
        "EligibilityEndTime (hh:mm)":"18:00",
        "Country":"Turkey",
        "City":"MU\u015e",
        "District":"MERKEZ",
        "AddressText":"YE\u015eILYURT MAHALLESI \u0130STASYON CADDESI  20",
        "Latitude":38.7467384338,
        "Longitude":41.5015296936
    },
    {
        "CustomerId":183,
        "VisitDuration":"00:30",
        "VisitFreq":4,
        "MustVisitDays":null,
        "EligibilityBeginTime (hh:mm)":"08:30",
        "EligibilityEndTime (hh:mm)":"18:00",
        "Country":"Turkey",
        "City":"Zonguldak",
        "District":"Zonguldak Merkez",
        "AddressText":"KARAELMAS MAHALLESI \u0130STASYON CADDESI KARAELMAS MAHALLESI NO:9  9",
        "Latitude":41.449504,
        "Longitude":31.792418
    },
    {
        "CustomerId":184,
        "VisitDuration":"00:30",
        "VisitFreq":4,
        "MustVisitDays":null,
        "EligibilityBeginTime (hh:mm)":"08:30",
        "EligibilityEndTime (hh:mm)":"18:00",
        "Country":"Turkey",
        "City":"KAHRAMANMARA\u015e",
        "District":"DULKADIRO\u011eLU",
        "AddressText":"\u0130STASYON MAHALLESI GAZI MUSTAFA KEMAL BULVARI 59B",
        "Latitude":37.55047,
        "Longitude":36.921938
    },
    {
        "CustomerId":185,
        "VisitDuration":"00:30",
        "VisitFreq":4,
        "MustVisitDays":null,
        "EligibilityBeginTime (hh:mm)":"08:30",
        "EligibilityEndTime (hh:mm)":"18:00",
        "Country":"Turkey",
        "City":"Zonguldak",
        "District":"\u00c7aycuma",
        "AddressText":"\u0130STASYON MAHALLESI KENAN AYDIN CADDESI \u0130STASYON MAHALLESI NO:22\/A  22\/A",
        "Latitude":41.423323,
        "Longitude":32.09407
    },
    {
        "CustomerId":187,
        "VisitDuration":"00:30",
        "VisitFreq":1,
        "MustVisitDays":null,
        "EligibilityBeginTime (hh:mm)":"08:30",
        "EligibilityEndTime (hh:mm)":"18:00",
        "Country":"Turkey",
        "City":"MANISA",
        "District":"TURGUTLU",
        "AddressText":"\u0130STIKLAL MAHALLESI CEVDET \u00d6KTEM CADDESI \u0130STIKLAL MAHALLESI NO:9  9",
        "Latitude":38.499702,
        "Longitude":27.710365
    },
    {
        "CustomerId":188,
        "VisitDuration":"00:30",
        "VisitFreq":1,
        "MustVisitDays":null,
        "EligibilityBeginTime (hh:mm)":"08:30",
        "EligibilityEndTime (hh:mm)":"18:00",
        "Country":"Turkey",
        "City":"\u0130ZMIR",
        "District":"TORBALI",
        "AddressText":"\u0130N\u00d6N\u00dc MAHALLESI \u0130ZMIR AYDIN CADDESI \u0130N\u00d6N\u00dc MAHALLESI NO:29\/A  29\/A",
        "Latitude":38.2375683765,
        "Longitude":27.2823934257
    },
    {
        "CustomerId":195,
        "VisitDuration":"00:30",
        "VisitFreq":4,
        "MustVisitDays":null,
        "EligibilityBeginTime (hh:mm)":"08:30",
        "EligibilityEndTime (hh:mm)":"18:00",
        "Country":"Turkey",
        "City":"ADANA",
        "District":"KOZAN",
        "AddressText":"KARACAO\u011eLAN MAHALLESI DEVELI BULVARI 7\/A",
        "Latitude":37.4641352054,
        "Longitude":35.8082860429
    },
    {
        "CustomerId":201,
        "VisitDuration":"00:30",
        "VisitFreq":4,
        "MustVisitDays":null,
        "EligibilityBeginTime (hh:mm)":"08:30",
        "EligibilityEndTime (hh:mm)":"18:00",
        "Country":"Turkey",
        "City":"ADANA",
        "District":"Y\u00dcRE\u011eIR",
        "AddressText":"HAYDARO\u011eLU MAHALLESI KARATA\u015e BULVARI 128\/A",
        "Latitude":36.97056,
        "Longitude":35.340894
    },
    {
        "CustomerId":203,
        "VisitDuration":"00:30",
        "VisitFreq":4,
        "MustVisitDays":null,
        "EligibilityBeginTime (hh:mm)":"08:30",
        "EligibilityEndTime (hh:mm)":"18:00",
        "Country":"Turkey",
        "City":"GAZIANTEP",
        "District":"\u015eAHINBEY",
        "AddressText":"KARATA\u015e MAHALLESI 103400. CADDESI 1",
        "Latitude":37.0220146179,
        "Longitude":37.339050293
    },
    {
        "CustomerId":204,
        "VisitDuration":"00:30",
        "VisitFreq":4,
        "MustVisitDays":null,
        "EligibilityBeginTime (hh:mm)":"08:30",
        "EligibilityEndTime (hh:mm)":"18:00",
        "Country":"Turkey",
        "City":"GAZIANTEP",
        "District":"\u015eAHINBEY",
        "AddressText":"KARATA\u015e MAHALLESI 400. CADDESI 13\/B",
        "Latitude":37.017393,
        "Longitude":37.343186
    },
    {
        "CustomerId":207,
        "VisitDuration":"00:30",
        "VisitFreq":4,
        "MustVisitDays":null,
        "EligibilityBeginTime (hh:mm)":"08:30",
        "EligibilityEndTime (hh:mm)":"18:00",
        "Country":"Turkey",
        "City":"\u015eANLIURFA",
        "District":"KARAK\u00d6PR\u00dc",
        "AddressText":"MERKEZ MAHALLESI 401. CADDESI 5\/B",
        "Latitude":37.189689,
        "Longitude":38.802186
    },
    {
        "CustomerId":209,
        "VisitDuration":"00:30",
        "VisitFreq":4,
        "MustVisitDays":null,
        "EligibilityBeginTime (hh:mm)":"08:30",
        "EligibilityEndTime (hh:mm)":"18:00",
        "Country":"Turkey",
        "City":"VAN",
        "District":"\u0130PEKYOLU",
        "AddressText":"BAH\u00c7IVAN MAHALLESI KAZIM KARABEKIR BULVARI  62",
        "Latitude":38.499678,
        "Longitude":43.386757
    },
    {
        "CustomerId":214,
        "VisitDuration":"00:30",
        "VisitFreq":4,
        "MustVisitDays":null,
        "EligibilityBeginTime (hh:mm)":"08:30",
        "EligibilityEndTime (hh:mm)":"18:00",
        "Country":"Turkey",
        "City":"VAN",
        "District":"ERCI\u015e",
        "AddressText":"KI\u015eLA MAHALLESI KI\u015eLA BULVARI  39",
        "Latitude":39.027459,
        "Longitude":43.356224
    },
    {
        "CustomerId":222,
        "VisitDuration":"00:30",
        "VisitFreq":4,
        "MustVisitDays":null,
        "EligibilityBeginTime (hh:mm)":"08:30",
        "EligibilityEndTime (hh:mm)":"18:00",
        "Country":"Turkey",
        "City":"KAYSERI",
        "District":"MELIKGAZI",
        "AddressText":"K\u00d6\u015eK MAHALLESI \u015eHT. \u00dcT\u011eM. MUSTAFA \u015eIM\u015eEK BULVARI  38\/B",
        "Latitude":38.7221328309,
        "Longitude":35.5105895922
    },
    {
        "CustomerId":226,
        "VisitDuration":"00:30",
        "VisitFreq":4,
        "MustVisitDays":null,
        "EligibilityBeginTime (hh:mm)":"08:30",
        "EligibilityEndTime (hh:mm)":"18:00",
        "Country":"Turkey",
        "City":"OSMANIYE",
        "District":"D\u00dcZI\u00c7I",
        "AddressText":"\u0130RFANIYE MAHALLESI \u015eHT. AHMET METLIO\u011eLU CADDESI 275",
        "Latitude":37.249736,
        "Longitude":36.45822
    },
    {
        "CustomerId":228,
        "VisitDuration":"00:30",
        "VisitFreq":4,
        "MustVisitDays":null,
        "EligibilityBeginTime (hh:mm)":"08:30",
        "EligibilityEndTime (hh:mm)":"18:00",
        "Country":"Turkey",
        "City":"Kastamonu",
        "District":"Kastamonu Merkez",
        "AddressText":"KUZEYKENT MAHALLESI DEMIRCIOGLU CAD KUZEYKENT MAHALLESI NO:26\/a  26\/a",
        "Latitude":41.429354,
        "Longitude":33.783403
    },
    {
        "CustomerId":230,
        "VisitDuration":"00:30",
        "VisitFreq":4,
        "MustVisitDays":null,
        "EligibilityBeginTime (hh:mm)":"08:30",
        "EligibilityEndTime (hh:mm)":"18:00",
        "Country":"Turkey",
        "City":"BITLIS",
        "District":"TATVAN",
        "AddressText":"K\u00dcLT\u00dcR MAHALLESI VAN BITLIS YOLU  4",
        "Latitude":38.5027885437,
        "Longitude":42.2809906006
    },
    {
        "CustomerId":232,
        "VisitDuration":"00:30",
        "VisitFreq":1,
        "MustVisitDays":null,
        "EligibilityBeginTime (hh:mm)":"08:30",
        "EligibilityEndTime (hh:mm)":"18:00",
        "Country":"Turkey",
        "City":"BATMAN",
        "District":"MERKEZ",
        "AddressText":"K\u00dcLT\u00dcR MAHALLESI KIBRIS \u015eEHITLER BULVARI  78\/1",
        "Latitude":37.902236,
        "Longitude":41.119211
    },
    {
        "CustomerId":233,
        "VisitDuration":"00:30",
        "VisitFreq":4,
        "MustVisitDays":null,
        "EligibilityBeginTime (hh:mm)":"08:30",
        "EligibilityEndTime (hh:mm)":"18:00",
        "Country":"Turkey",
        "City":"ADANA",
        "District":"Y\u00dcRE\u011eIR",
        "AddressText":"LEVENT MAHALLESI LEVENT CADDESI 151",
        "Latitude":36.977609,
        "Longitude":35.382847
    },
    {
        "CustomerId":237,
        "VisitDuration":"00:30",
        "VisitFreq":4,
        "MustVisitDays":null,
        "EligibilityBeginTime (hh:mm)":"08:30",
        "EligibilityEndTime (hh:mm)":"18:00",
        "Country":"Turkey",
        "City":"ANKARA",
        "District":"YENIMAHALLE",
        "AddressText":"MACUN MAH 204.CAD 18",
        "Latitude":39.948553,
        "Longitude":32.761524
    },
    {
        "CustomerId":238,
        "VisitDuration":"00:30",
        "VisitFreq":4,
        "MustVisitDays":null,
        "EligibilityBeginTime (hh:mm)":"08:30",
        "EligibilityEndTime (hh:mm)":"18:00",
        "Country":"Turkey",
        "City":"ANKARA",
        "District":"YENIMAHALLE",
        "AddressText":"MACUN MAHALLESI BA\u011eDAT CADDESI 101\/1",
        "Latitude":39.960891,
        "Longitude":32.767514
    },
    {
        "CustomerId":243,
        "VisitDuration":"00:30",
        "VisitFreq":4,
        "MustVisitDays":null,
        "EligibilityBeginTime (hh:mm)":"08:30",
        "EligibilityEndTime (hh:mm)":"18:00",
        "Country":"Turkey",
        "City":"VAN",
        "District":"\u0130PEKYOLU",
        "AddressText":"VALI MITHAT BEY MAHALLESI \u0130SKELE CADDESI  10",
        "Latitude":38.504663,
        "Longitude":43.394973
    },
    {
        "CustomerId":248,
        "VisitDuration":"00:30",
        "VisitFreq":4,
        "MustVisitDays":null,
        "EligibilityBeginTime (hh:mm)":"08:30",
        "EligibilityEndTime (hh:mm)":"18:00",
        "Country":"Turkey",
        "City":"MERSIN",
        "District":"TARSUS",
        "AddressText":"ERGENEKON MAHALLESI FATIH SULTAN MEHMET BULVARI 31",
        "Latitude":36.929476,
        "Longitude":34.863841
    },
    {
        "CustomerId":251,
        "VisitDuration":"00:30",
        "VisitFreq":4,
        "MustVisitDays":null,
        "EligibilityBeginTime (hh:mm)":"08:30",
        "EligibilityEndTime (hh:mm)":"18:00",
        "Country":"Turkey",
        "City":"Kocaeli",
        "District":"G\u00f6lc\u00fck",
        "AddressText":"Merkez Mah.Atat\u00fcrk Cad.No 33 Deg\u0131rmendere ",
        "Latitude":40.718614,
        "Longitude":29.782565
    },
    {
        "CustomerId":253,
        "VisitDuration":"00:30",
        "VisitFreq":4,
        "MustVisitDays":null,
        "EligibilityBeginTime (hh:mm)":"08:30",
        "EligibilityEndTime (hh:mm)":"18:00",
        "Country":"Turkey",
        "City":"DIYARBAKIR",
        "District":"KAYAPINAR",
        "AddressText":"FIRAT MAHALLESI MEZOPOTAMYA BULVARI  1",
        "Latitude":37.927989,
        "Longitude":40.133852
    },
    {
        "CustomerId":260,
        "VisitDuration":"00:30",
        "VisitFreq":4,
        "MustVisitDays":null,
        "EligibilityBeginTime (hh:mm)":"08:30",
        "EligibilityEndTime (hh:mm)":"18:00",
        "Country":"Turkey",
        "City":"Zonguldak",
        "District":"Eregli \/ Zonguldak",
        "AddressText":"M\u00dcFT\u00dc MAHALLESI UZUNKUM CADDESI M\u00dcFT\u00dc MAHALLESI NO:13  13",
        "Latitude":41.274386,
        "Longitude":31.4261
    },
    {
        "CustomerId":267,
        "VisitDuration":"00:30",
        "VisitFreq":4,
        "MustVisitDays":null,
        "EligibilityBeginTime (hh:mm)":"08:30",
        "EligibilityEndTime (hh:mm)":"18:00",
        "Country":"Turkey",
        "City":"VAN",
        "District":"\u0130PEKYOLU",
        "AddressText":"\u015eEREFIYE MAHALLESI ORDU CADDESI  40",
        "Latitude":38.500058,
        "Longitude":43.399548
    },
    {
        "CustomerId":269,
        "VisitDuration":"00:30",
        "VisitFreq":4,
        "MustVisitDays":null,
        "EligibilityBeginTime (hh:mm)":"08:30",
        "EligibilityEndTime (hh:mm)":"18:00",
        "Country":"Turkey",
        "City":"AFYONKARAHISAR",
        "District":"MERKEZ",
        "AddressText":"AFYONKARAHISAR OSB 4. CADDE 3. SOKAK 2",
        "Latitude":38.755306,
        "Longitude":30.546326
    },
    {
        "CustomerId":274,
        "VisitDuration":"00:30",
        "VisitFreq":4,
        "MustVisitDays":null,
        "EligibilityBeginTime (hh:mm)":"08:30",
        "EligibilityEndTime (hh:mm)":"18:00",
        "Country":"Turkey",
        "City":"ERZURUM",
        "District":"YAKUTIYE",
        "AddressText":"KURTULU\u015e MAHALLESI TORTUM YOLU CADDESI  194",
        "Latitude":39.951623,
        "Longitude":41.293424
    },
    {
        "CustomerId":277,
        "VisitDuration":"00:30",
        "VisitFreq":4,
        "MustVisitDays":null,
        "EligibilityBeginTime (hh:mm)":"08:30",
        "EligibilityEndTime (hh:mm)":"18:00",
        "Country":"Turkey",
        "City":"BURDUR",
        "District":"MERKEZ",
        "AddressText":"\u00d6ZG\u00dcR MAHALLESI NAMAZGAH SOKAK \u00d6ZG\u00dcR MAHALLESI NO:4\/A  4\/A",
        "Latitude":37.721388,
        "Longitude":30.28714
    },
    {
        "CustomerId":278,
        "VisitDuration":"00:30",
        "VisitFreq":4,
        "MustVisitDays":null,
        "EligibilityBeginTime (hh:mm)":"08:30",
        "EligibilityEndTime (hh:mm)":"18:00",
        "Country":"Turkey",
        "City":"\u015eANLIURFA",
        "District":"HALILIYE",
        "AddressText":"PA\u015eABA\u011eI MAHALLESI MEVLANA CADDESI 72",
        "Latitude":37.158719,
        "Longitude":38.813151
    },
    {
        "CustomerId":280,
        "VisitDuration":"00:30",
        "VisitFreq":4,
        "MustVisitDays":null,
        "EligibilityBeginTime (hh:mm)":"08:30",
        "EligibilityEndTime (hh:mm)":"18:00",
        "Country":"Turkey",
        "City":"Zonguldak",
        "District":"Alapli",
        "AddressText":"MERKEZ MAHALLESI H\u00dcK\u00dcMET CADDESI MERKEZ MAHALLESI NO:17  17",
        "Latitude":41.179919,
        "Longitude":31.38649
    },
    {
        "CustomerId":281,
        "VisitDuration":"00:30",
        "VisitFreq":1,
        "MustVisitDays":null,
        "EligibilityBeginTime (hh:mm)":"08:30",
        "EligibilityEndTime (hh:mm)":"18:00",
        "Country":"Turkey",
        "City":"ADANA",
        "District":"SEYHAN",
        "AddressText":"G\u00dcRSELPA\u015eA MAHALLESI ALI BOZDO\u011eANO\u011eLU BULVARI 27",
        "Latitude":37.026612,
        "Longitude":35.276536
    },
    {
        "CustomerId":284,
        "VisitDuration":"00:30",
        "VisitFreq":4,
        "MustVisitDays":null,
        "EligibilityBeginTime (hh:mm)":"08:30",
        "EligibilityEndTime (hh:mm)":"18:00",
        "Country":"Turkey",
        "City":"RIZE",
        "District":"MERKEZ",
        "AddressText":"PORTAKALLIK MAHALLESI MENDERES BULVARI  420\/A",
        "Latitude":41.0309829712,
        "Longitude":40.5537986755
    },
    {
        "CustomerId":292,
        "VisitDuration":"00:30",
        "VisitFreq":4,
        "MustVisitDays":null,
        "EligibilityBeginTime (hh:mm)":"08:30",
        "EligibilityEndTime (hh:mm)":"18:00",
        "Country":"Turkey",
        "City":"GAZIANTEP",
        "District":"\u015eAHINBEY",
        "AddressText":"ONUR MAHALLESI 45. CADDESI 5",
        "Latitude":37.047029,
        "Longitude":37.36377
    },
    {
        "CustomerId":295,
        "VisitDuration":"00:30",
        "VisitFreq":4,
        "MustVisitDays":null,
        "EligibilityBeginTime (hh:mm)":"08:30",
        "EligibilityEndTime (hh:mm)":"18:00",
        "Country":"Turkey",
        "City":"ESKI\u015eEHIR",
        "District":"TEPEBA\u015eI",
        "AddressText":"BAH\u00c7ELIEVLER MAHALLESI SAKARYA-2 CADDESI 101",
        "Latitude":39.786143,
        "Longitude":30.519127
    },
    {
        "CustomerId":300,
        "VisitDuration":"00:30",
        "VisitFreq":4,
        "MustVisitDays":null,
        "EligibilityBeginTime (hh:mm)":"08:30",
        "EligibilityEndTime (hh:mm)":"18:00",
        "Country":"Turkey",
        "City":"\u0130stanbul",
        "District":"Ba\u011fc\u0131lar",
        "AddressText":"Sancaktepe Mah. Fat\u0131h Cad. No:135 ",
        "Latitude":41.040311,
        "Longitude":28.857828
    },
    {
        "CustomerId":307,
        "VisitDuration":"00:30",
        "VisitFreq":4,
        "MustVisitDays":null,
        "EligibilityBeginTime (hh:mm)":"08:30",
        "EligibilityEndTime (hh:mm)":"18:00",
        "Country":"Turkey",
        "City":"KARAMAN",
        "District":"MERKEZ",
        "AddressText":"\u0130MARET MAHALLESI ATAT\u00dcRK BULVARI \u0130MARET MAHALLESI NO:2  2",
        "Latitude":37.181286,
        "Longitude":33.220648
    },
    {
        "CustomerId":309,
        "VisitDuration":"00:30",
        "VisitFreq":4,
        "MustVisitDays":null,
        "EligibilityBeginTime (hh:mm)":"08:30",
        "EligibilityEndTime (hh:mm)":"18:00",
        "Country":"Turkey",
        "City":"Sakarya",
        "District":"Adapazar\u0131",
        "AddressText":"SEMERCILER MAHALLESI KUD\u00dcS CADDESI SEMERCILER MAHALLESI NO:50  50",
        "Latitude":40.773856,
        "Longitude":30.395526
    },
    {
        "CustomerId":310,
        "VisitDuration":"00:30",
        "VisitFreq":4,
        "MustVisitDays":null,
        "EligibilityBeginTime (hh:mm)":"08:30",
        "EligibilityEndTime (hh:mm)":"18:00",
        "Country":"Turkey",
        "City":"VAN",
        "District":"\u0130PEKYOLU",
        "AddressText":"\u015eEREFIYE MAHALLESI CUMHURIYET BULVARI  89\/C",
        "Latitude":38.496822,
        "Longitude":43.394726
    },
    {
        "CustomerId":311,
        "VisitDuration":"00:30",
        "VisitFreq":1,
        "MustVisitDays":null,
        "EligibilityBeginTime (hh:mm)":"08:30",
        "EligibilityEndTime (hh:mm)":"18:00",
        "Country":"Turkey",
        "City":"MANISA",
        "District":"\u015eEHZADELER",
        "AddressText":"\u015eehzadeler SEYFETTIN BEY CADESI \u015eehzadeler NO:1  1",
        "Latitude":38.6138982249,
        "Longitude":27.4355728207
    },
    {
        "CustomerId":315,
        "VisitDuration":"00:30",
        "VisitFreq":4,
        "MustVisitDays":null,
        "EligibilityBeginTime (hh:mm)":"08:30",
        "EligibilityEndTime (hh:mm)":"18:00",
        "Country":"Turkey",
        "City":"SAMSUN",
        "District":"ATAKUM",
        "AddressText":"ESENEVLER MAHALLESI 404.SOKAK  45295",
        "Latitude":41.26359,
        "Longitude":36.350327
    },
    {
        "CustomerId":319,
        "VisitDuration":"00:30",
        "VisitFreq":4,
        "MustVisitDays":null,
        "EligibilityBeginTime (hh:mm)":"08:30",
        "EligibilityEndTime (hh:mm)":"18:00",
        "Country":"Turkey",
        "City":"\u015eANLIURFA",
        "District":"HALILIYE",
        "AddressText":"SANCAKTAR MAHALLESI \u015e\u00dcTIM \u015eIRECILER PAZARI 1",
        "Latitude":37.15599823,
        "Longitude":38.8107376099
    },
    {
        "CustomerId":320,
        "VisitDuration":"00:30",
        "VisitFreq":4,
        "MustVisitDays":null,
        "EligibilityBeginTime (hh:mm)":"08:30",
        "EligibilityEndTime (hh:mm)":"18:00",
        "Country":"Turkey",
        "City":"\u015eANLIURFA",
        "District":"HALILIYE",
        "AddressText":"PA\u015eABA\u011eI MAHALLESI MEVLANA CADDESI 1",
        "Latitude":37.1552810669,
        "Longitude":38.8098144531
    },
    {
        "CustomerId":321,
        "VisitDuration":"00:30",
        "VisitFreq":4,
        "MustVisitDays":null,
        "EligibilityBeginTime (hh:mm)":"08:30",
        "EligibilityEndTime (hh:mm)":"18:00",
        "Country":"Turkey",
        "City":"ISPARTA",
        "District":"MERKEZ",
        "AddressText":"FATIH MAHALLESI 156 CADDESI FATIH MAHALLESI NO:45506  45506",
        "Latitude":37.783135,
        "Longitude":30.545249
    },
    {
        "CustomerId":325,
        "VisitDuration":"00:30",
        "VisitFreq":4,
        "MustVisitDays":null,
        "EligibilityBeginTime (hh:mm)":"08:30",
        "EligibilityEndTime (hh:mm)":"18:00",
        "Country":"Turkey",
        "City":"VAN",
        "District":"EDREMIT",
        "AddressText":"S\u00dcPHAN MAH  NAZIM \u00dcST\u00dcNOVA SK VANG\u00d6L\u00dc TO.SIT.H1 BLOK   164",
        "Latitude":38.4919662476,
        "Longitude":43.4104957581
    },
    {
        "CustomerId":330,
        "VisitDuration":"00:30",
        "VisitFreq":4,
        "MustVisitDays":null,
        "EligibilityBeginTime (hh:mm)":"08:30",
        "EligibilityEndTime (hh:mm)":"18:00",
        "Country":"Turkey",
        "City":"ADANA",
        "District":"Y\u00dcRE\u011eIR",
        "AddressText":"TAHSILLI MAHALLESI KOZAN CADDESI 327\/A",
        "Latitude":37.000132,
        "Longitude":35.363662
    },
    {
        "CustomerId":331,
        "VisitDuration":"00:30",
        "VisitFreq":4,
        "MustVisitDays":null,
        "EligibilityBeginTime (hh:mm)":"08:30",
        "EligibilityEndTime (hh:mm)":"18:00",
        "Country":"Turkey",
        "City":"KARAMAN",
        "District":"MERKEZ",
        "AddressText":"TAHSIN \u00dcNAL MAHALLESI YUNUS EMRE CADDESI TAHSIN \u00dcNAL MAHALLESI NO:14  14",
        "Latitude":37.182395,
        "Longitude":33.219416
    },
    {
        "CustomerId":332,
        "VisitDuration":"00:30",
        "VisitFreq":4,
        "MustVisitDays":null,
        "EligibilityBeginTime (hh:mm)":"08:30",
        "EligibilityEndTime (hh:mm)":"18:00",
        "Country":"Turkey",
        "City":"BITLIS",
        "District":"MERKEZ",
        "AddressText":"TA\u015e MAHALLESI RECEP A\u011eA SOKAK  4",
        "Latitude":38.423022,
        "Longitude":42.124829
    },
    {
        "CustomerId":334,
        "VisitDuration":"00:30",
        "VisitFreq":1,
        "MustVisitDays":null,
        "EligibilityBeginTime (hh:mm)":"08:30",
        "EligibilityEndTime (hh:mm)":"18:00",
        "Country":"Turkey",
        "City":"MARDIN",
        "District":"KIZILTEPE",
        "AddressText":"TEPEBA\u015eI MAHALLESI 608. SOKAK  13\/A",
        "Latitude":37.189502,
        "Longitude":40.586983
    },
    {
        "CustomerId":337,
        "VisitDuration":"00:30",
        "VisitFreq":4,
        "MustVisitDays":null,
        "EligibilityBeginTime (hh:mm)":"08:30",
        "EligibilityEndTime (hh:mm)":"18:00",
        "Country":"Turkey",
        "City":"DIYARBAKIR",
        "District":"KAYAPINAR",
        "AddressText":"ORK\u00d6Y MAH URFA YOLU ORK\u00d6Y KAV\u015eA\u011eI \u00dcZERI  1",
        "Latitude":37.928469,
        "Longitude":40.174462
    },
    {
        "CustomerId":340,
        "VisitDuration":"00:30",
        "VisitFreq":4,
        "MustVisitDays":null,
        "EligibilityBeginTime (hh:mm)":"08:30",
        "EligibilityEndTime (hh:mm)":"18:00",
        "Country":"Turkey",
        "City":"ADANA",
        "District":"SEYHAN",
        "AddressText":"YE\u015eILYURT MAHALLESI AHMET SAPMAZ BULVARI 40\/A",
        "Latitude":37.0318011273,
        "Longitude":35.2994932944
    },
    {
        "CustomerId":341,
        "VisitDuration":"00:30",
        "VisitFreq":4,
        "MustVisitDays":null,
        "EligibilityBeginTime (hh:mm)":"08:30",
        "EligibilityEndTime (hh:mm)":"18:00",
        "Country":"Turkey",
        "City":"MERSIN",
        "District":"TOROSLAR",
        "AddressText":"TOZKOPARAN MAHALLESI 207. CADDESI 147",
        "Latitude":36.820948,
        "Longitude":34.616616
    },
    {
        "CustomerId":343,
        "VisitDuration":"00:30",
        "VisitFreq":4,
        "MustVisitDays":null,
        "EligibilityBeginTime (hh:mm)":"08:30",
        "EligibilityEndTime (hh:mm)":"18:00",
        "Country":"Turkey",
        "City":"ADANA",
        "District":"SEYHAN",
        "AddressText":"U\u00c7AK MAHALLESI \u015eAKIRPA\u015eA CADDESI 101\/A",
        "Latitude":36.987505,
        "Longitude":35.277282
    },
    {
        "CustomerId":354,
        "VisitDuration":"00:30",
        "VisitFreq":4,
        "MustVisitDays":null,
        "EligibilityBeginTime (hh:mm)":"08:30",
        "EligibilityEndTime (hh:mm)":"18:00",
        "Country":"Turkey",
        "City":"GIRESUN",
        "District":"BULANCAK",
        "AddressText":"\u0130HSANIYE MAHALLESI U\u011eUR MUMCU CADDESI  14\/B",
        "Latitude":40.938226,
        "Longitude":38.229974
    },
    {
        "CustomerId":355,
        "VisitDuration":"00:30",
        "VisitFreq":4,
        "MustVisitDays":null,
        "EligibilityBeginTime (hh:mm)":"08:30",
        "EligibilityEndTime (hh:mm)":"18:00",
        "Country":"Turkey",
        "City":"KONYA",
        "District":"SEL\u00c7UKLU",
        "AddressText":"FERITPA\u015eA MAHALLESI ADNAN MENDERES CADDESI FERITPA\u015eA MAHALLESI NO:21  21",
        "Latitude":37.972716,
        "Longitude":32.509169
    },
    {
        "CustomerId":356,
        "VisitDuration":"00:30",
        "VisitFreq":4,
        "MustVisitDays":null,
        "EligibilityBeginTime (hh:mm)":"08:30",
        "EligibilityEndTime (hh:mm)":"18:00",
        "Country":"Turkey",
        "City":"ISPARTA",
        "District":"MERKEZ",
        "AddressText":"YEDI\u015eEHITLER MAHALLESI G\u00d6LC\u00dcK CADDESI YEDI\u015eEHITLER MAHALLESI NO:106  106",
        "Latitude":37.769996,
        "Longitude":30.540994
    },
    {
        "CustomerId":357,
        "VisitDuration":"00:30",
        "VisitFreq":4,
        "MustVisitDays":null,
        "EligibilityBeginTime (hh:mm)":"08:30",
        "EligibilityEndTime (hh:mm)":"18:00",
        "Country":"Turkey",
        "City":"Zonguldak",
        "District":"Merkez",
        "AddressText":"MITHATPA\u015eA MAHALLESI ANKARA CADDESI MITHATPA\u015eA MAHALLESI NO:10  10",
        "Latitude":41.451322,
        "Longitude":31.79085
    },
    {
        "CustomerId":358,
        "VisitDuration":"00:30",
        "VisitFreq":4,
        "MustVisitDays":null,
        "EligibilityBeginTime (hh:mm)":"08:30",
        "EligibilityEndTime (hh:mm)":"18:00",
        "Country":"Turkey",
        "City":"\u015eANLIURFA",
        "District":"VIRAN\u015eEHIR",
        "AddressText":"YENI\u015eEHIR MAHALLESI 3. CADDESI 8",
        "Latitude":37.2253913879,
        "Longitude":39.7539024353
    },
    {
        "CustomerId":360,
        "VisitDuration":"00:30",
        "VisitFreq":1,
        "MustVisitDays":null,
        "EligibilityBeginTime (hh:mm)":"08:30",
        "EligibilityEndTime (hh:mm)":"18:00",
        "Country":"Turkey",
        "City":"BATMAN",
        "District":"MERKEZ",
        "AddressText":"YENI MAHALLESI 16 CADDESI  12",
        "Latitude":37.911026,
        "Longitude":41.133698
    },
    {
        "CustomerId":361,
        "VisitDuration":"00:30",
        "VisitFreq":4,
        "MustVisitDays":null,
        "EligibilityBeginTime (hh:mm)":"08:30",
        "EligibilityEndTime (hh:mm)":"18:00",
        "Country":"Turkey",
        "City":"Sakarya",
        "District":"Hendek",
        "AddressText":"BA\u015ePINAR MAHALLESI BE\u015eTEPELER CADDESI BA\u015ePINAR MAHALLESI NO:1  1",
        "Latitude":40.793706,
        "Longitude":30.736064
    },
    {
        "CustomerId":363,
        "VisitDuration":"00:30",
        "VisitFreq":4,
        "MustVisitDays":null,
        "EligibilityBeginTime (hh:mm)":"08:30",
        "EligibilityEndTime (hh:mm)":"18:00",
        "Country":"Turkey",
        "City":"ADANA",
        "District":"SEYHAN",
        "AddressText":"YENIBEY MAHALLESI \u00dcMM\u00dc G\u00dcLS\u00dcM CAMI SOKAK 57",
        "Latitude":36.968168,
        "Longitude":35.325034
    },
    {
        "CustomerId":364,
        "VisitDuration":"00:30",
        "VisitFreq":4,
        "MustVisitDays":null,
        "EligibilityBeginTime (hh:mm)":"08:30",
        "EligibilityEndTime (hh:mm)":"18:00",
        "Country":"Turkey",
        "City":"Sakarya",
        "District":"Serdivan",
        "AddressText":"\u0130STIKLAL MAHALLESI \u015eEHIT MEHMET KARABA\u015eO\u011eLU CADDESI  \u0130STIKLAL MAHALLESI NO:2\/A  2\/A",
        "Latitude":40.77175,
        "Longitude":30.362249
    },
    {
        "CustomerId":366,
        "VisitDuration":"00:30",
        "VisitFreq":1,
        "MustVisitDays":null,
        "EligibilityBeginTime (hh:mm)":"08:30",
        "EligibilityEndTime (hh:mm)":"18:00",
        "Country":"Turkey",
        "City":"MARDIN",
        "District":"ARTUKLU",
        "AddressText":"YENI\u015eEHIR MAHALLESI ERENLER CADDESI  31",
        "Latitude":37.320968,
        "Longitude":40.720924
    },
    {
        "CustomerId":367,
        "VisitDuration":"00:30",
        "VisitFreq":4,
        "MustVisitDays":null,
        "EligibilityBeginTime (hh:mm)":"08:30",
        "EligibilityEndTime (hh:mm)":"18:00",
        "Country":"Turkey",
        "City":"Kocaeli",
        "District":"Derince",
        "AddressText":"YENIKENT MAHALLESI GAZI MUSTAFA PA\u015eA CADDESI YENIKENT MAHALLESI NO:15  15",
        "Latitude":40.771727,
        "Longitude":29.810549
    },
    {
        "CustomerId":369,
        "VisitDuration":"00:30",
        "VisitFreq":1,
        "MustVisitDays":null,
        "EligibilityBeginTime (hh:mm)":"08:30",
        "EligibilityEndTime (hh:mm)":"18:00",
        "Country":"Turkey",
        "City":"MARDIN",
        "District":"KIZILTEPE",
        "AddressText":"YEN\u0130KENT MH MARDIN CADDESI  331\/Z-5",
        "Latitude":37.2313194275,
        "Longitude":40.6310844421
    },
    {
        "CustomerId":380,
        "VisitDuration":"00:30",
        "VisitFreq":4,
        "MustVisitDays":null,
        "EligibilityBeginTime (hh:mm)":"08:30",
        "EligibilityEndTime (hh:mm)":"18:00",
        "Country":"Turkey",
        "City":"MU\u015e",
        "District":"MERKEZ",
        "AddressText":"ZAFER MAHALLESI \u0130STASYON CADDESI  9\/A",
        "Latitude":38.752121,
        "Longitude":41.505166
    },
    {
        "CustomerId":389,
        "VisitDuration":"00:30",
        "VisitFreq":4,
        "MustVisitDays":null,
        "EligibilityBeginTime (hh:mm)":"08:30",
        "EligibilityEndTime (hh:mm)":"18:00",
        "Country":"Turkey",
        "City":"Kocaeli",
        "District":"\u0130zmit",
        "AddressText":"28 HAZIRAN MAHALLESI TURAN G\u00dcNE\u015e CADDESI 28 HAZIRAN MAHALLESI NO:293\/A  293\/A",
        "Latitude":40.77272972,
        "Longitude":29.95217903
    },
    {
        "CustomerId":394,
        "VisitDuration":"00:30",
        "VisitFreq":1,
        "MustVisitDays":null,
        "EligibilityBeginTime (hh:mm)":"08:30",
        "EligibilityEndTime (hh:mm)":"18:00",
        "Country":"Turkey",
        "City":"Bal\u0131kesir",
        "District":"Band\u0131rma",
        "AddressText":"600 EVLER MAHALLESI 1346. SOKAK 600 EVLER MAHALLESI NO:1  1",
        "Latitude":40.324702,
        "Longitude":28.004052
    },
    {
        "CustomerId":396,
        "VisitDuration":"00:30",
        "VisitFreq":4,
        "MustVisitDays":null,
        "EligibilityBeginTime (hh:mm)":"08:30",
        "EligibilityEndTime (hh:mm)":"18:00",
        "Country":"Turkey",
        "City":"DIYARBAKIR",
        "District":"BA\u011eLAR",
        "AddressText":"ALIPINAR MAHALLESI 22. SOKAK  1",
        "Latitude":37.9088341,
        "Longitude":40.2103633
    },
    {
        "CustomerId":398,
        "VisitDuration":"00:30",
        "VisitFreq":4,
        "MustVisitDays":null,
        "EligibilityBeginTime (hh:mm)":"08:30",
        "EligibilityEndTime (hh:mm)":"18:00",
        "Country":"Turkey",
        "City":"ERZURUM",
        "District":"YAKUTIYE",
        "AddressText":"\u00d6MER NASUHI BILMEN MAHALLESI ORHAN GAZI CADDESI  2",
        "Latitude":39.94818,
        "Longitude":41.300217
    },
    {
        "CustomerId":400,
        "VisitDuration":"00:30",
        "VisitFreq":4,
        "MustVisitDays":null,
        "EligibilityBeginTime (hh:mm)":"08:30",
        "EligibilityEndTime (hh:mm)":"18:00",
        "Country":"Turkey",
        "City":"Kocaeli",
        "District":"Kartepe",
        "AddressText":"FATIH SULTAN MEHMET MAHALLESI SAPANCA YOLU CADDESI FATIH SULTAN MEHMET MAHALLESI NO:456\/A  456\/A",
        "Latitude":40.71736,
        "Longitude":30.115792
    },
    {
        "CustomerId":405,
        "VisitDuration":"00:30",
        "VisitFreq":4,
        "MustVisitDays":null,
        "EligibilityBeginTime (hh:mm)":"08:30",
        "EligibilityEndTime (hh:mm)":"18:00",
        "Country":"Turkey",
        "City":"YOZGAT",
        "District":"SORGUN",
        "AddressText":"AHMETEFENDI MAHALLESI 3001. SOKAK  1",
        "Latitude":39.8133853,
        "Longitude":35.1778516
    },
    {
        "CustomerId":422,
        "VisitDuration":"00:30",
        "VisitFreq":4,
        "MustVisitDays":null,
        "EligibilityBeginTime (hh:mm)":"08:30",
        "EligibilityEndTime (hh:mm)":"18:00",
        "Country":"Turkey",
        "City":"Kocaeli",
        "District":"G\u00f6lc\u00fck",
        "AddressText":"\u00d6MERA\u011eA MAHALLESI ABDURRAHMAN Y\u00dcKSEL CADDESI \u00d6MERA\u011eA MAHALLESI NO:52  52",
        "Latitude":40.765316,
        "Longitude":29.928847
    },
    {
        "CustomerId":423,
        "VisitDuration":"00:30",
        "VisitFreq":4,
        "MustVisitDays":null,
        "EligibilityBeginTime (hh:mm)":"08:30",
        "EligibilityEndTime (hh:mm)":"18:00",
        "Country":"Turkey",
        "City":"Kocaeli",
        "District":"\u0130zmit",
        "AddressText":"ALIKAHYA MERKEZ MAHALLESI SAKIP SABANCI BULVARI ALIKAHYA MERKEZ MAHALLESI NO:4\/D  4\/D",
        "Latitude":40.77073754,
        "Longitude":30.00446201
    },
    {
        "CustomerId":425,
        "VisitDuration":"00:30",
        "VisitFreq":4,
        "MustVisitDays":null,
        "EligibilityBeginTime (hh:mm)":"08:30",
        "EligibilityEndTime (hh:mm)":"18:00",
        "Country":"Turkey",
        "City":"VAN",
        "District":"TU\u015eBA",
        "AddressText":"ALTINTEPE MAHALLESI \u0130SKELE CADDESI  1",
        "Latitude":38.50175,
        "Longitude":43.382843
    },
    {
        "CustomerId":426,
        "VisitDuration":"00:30",
        "VisitFreq":4,
        "MustVisitDays":null,
        "EligibilityBeginTime (hh:mm)":"08:30",
        "EligibilityEndTime (hh:mm)":"18:00",
        "Country":"Turkey",
        "City":"\u0130stanbul",
        "District":"Arnavutk\u00f6y",
        "AddressText":"Anadolu Mah. M.S\u0131nan Cad. No:69 ",
        "Latitude":41.188235,
        "Longitude":28.748995
    },
    {
        "CustomerId":432,
        "VisitDuration":"00:30",
        "VisitFreq":4,
        "MustVisitDays":null,
        "EligibilityBeginTime (hh:mm)":"08:30",
        "EligibilityEndTime (hh:mm)":"18:00",
        "Country":"Turkey",
        "City":"ERZINCAN",
        "District":"MERKEZ",
        "AddressText":"ARSLANLI MAHALLESI MILLI EGEMENLIK BULVARI  23",
        "Latitude":39.759787,
        "Longitude":39.482887
    },
    {
        "CustomerId":437,
        "VisitDuration":"00:30",
        "VisitFreq":4,
        "MustVisitDays":null,
        "EligibilityBeginTime (hh:mm)":"08:30",
        "EligibilityEndTime (hh:mm)":"18:00",
        "Country":"Turkey",
        "City":"Kocaeli",
        "District":"Kartepe",
        "AddressText":"ATAEVLER MAHALLESI \u0130SMET PA\u015eA CADDESI ATAEVLER MAHALLESI NO:45320  45320",
        "Latitude":40.741354,
        "Longitude":30.047115
    },
    {
        "CustomerId":438,
        "VisitDuration":"00:30",
        "VisitFreq":4,
        "MustVisitDays":null,
        "EligibilityBeginTime (hh:mm)":"08:30",
        "EligibilityEndTime (hh:mm)":"18:00",
        "Country":"Turkey",
        "City":"Kocaeli",
        "District":"Kartepe",
        "AddressText":"\u00c7AMLIK MAHALLESI SAPANCA YOLU CADDESI \u00c7AMLIK MAHALLESI NO:66\/A  66\/A",
        "Latitude":40.739999,
        "Longitude":30.051719
    },
    {
        "CustomerId":441,
        "VisitDuration":"00:30",
        "VisitFreq":4,
        "MustVisitDays":null,
        "EligibilityBeginTime (hh:mm)":"08:30",
        "EligibilityEndTime (hh:mm)":"18:00",
        "Country":"Turkey",
        "City":"KAYSERI",
        "District":"KOCASINAN",
        "AddressText":"GEVHERNESIBE MAHALLESI ATAT\u00dcRK BULVARI  8\/A",
        "Latitude":38.721534,
        "Longitude":35.482472
    },
    {
        "CustomerId":442,
        "VisitDuration":"00:30",
        "VisitFreq":4,
        "MustVisitDays":null,
        "EligibilityBeginTime (hh:mm)":"08:30",
        "EligibilityEndTime (hh:mm)":"18:00",
        "Country":"Turkey",
        "City":"KAYSERI",
        "District":"KOCASINAN",
        "AddressText":"GEVHERNESIBE MAHALLESI ATAT\u00dcRK BULVARI  6",
        "Latitude":38.721207,
        "Longitude":35.482464
    },
    {
        "CustomerId":451,
        "VisitDuration":"00:30",
        "VisitFreq":4,
        "MustVisitDays":null,
        "EligibilityBeginTime (hh:mm)":"08:30",
        "EligibilityEndTime (hh:mm)":"18:00",
        "Country":"Turkey",
        "City":"KONYA",
        "District":"SEL\u00c7UKLU",
        "AddressText":"AYDINLIKEVLER MAHALLESI ZIYA \u00dcLHAK CADDESI AYDINLIKEVLER MAHALLESI NO:3\/B-1  3\/B-1",
        "Latitude":37.90832,
        "Longitude":32.494641
    },
    {
        "CustomerId":473,
        "VisitDuration":"00:30",
        "VisitFreq":4,
        "MustVisitDays":null,
        "EligibilityBeginTime (hh:mm)":"08:30",
        "EligibilityEndTime (hh:mm)":"18:00",
        "Country":"Turkey",
        "City":"VAN",
        "District":"\u0130PEKYOLU",
        "AddressText":"VALI MITHAT BEY MAHALLESI DEFTERDARLIK CADDESI  1",
        "Latitude":38.504885,
        "Longitude":43.395335
    },
    {
        "CustomerId":474,
        "VisitDuration":"00:30",
        "VisitFreq":4,
        "MustVisitDays":null,
        "EligibilityBeginTime (hh:mm)":"08:30",
        "EligibilityEndTime (hh:mm)":"18:00",
        "Country":"Turkey",
        "City":"GAZIANTEP",
        "District":"\u015eAHINBEY",
        "AddressText":"BEYAZLAR MAHALLESI SAMLI HACI \u00d6KKE\u015e CADDESI 80",
        "Latitude":37.052414,
        "Longitude":37.352969
    },
    {
        "CustomerId":478,
        "VisitDuration":"00:30",
        "VisitFreq":4,
        "MustVisitDays":null,
        "EligibilityBeginTime (hh:mm)":"08:30",
        "EligibilityEndTime (hh:mm)":"18:00",
        "Country":"Turkey",
        "City":"BITLIS",
        "District":"TATVAN",
        "AddressText":"TU\u011e MAHALLESI CUMHURIYET CADDESI  320",
        "Latitude":38.491187,
        "Longitude":42.289206
    },
    {
        "CustomerId":481,
        "VisitDuration":"00:30",
        "VisitFreq":4,
        "MustVisitDays":null,
        "EligibilityBeginTime (hh:mm)":"08:30",
        "EligibilityEndTime (hh:mm)":"18:00",
        "Country":"Turkey",
        "City":"D\u00fczce",
        "District":"Merkez",
        "AddressText":"BURHANIYE MAHALLESI ATAT\u00dcRK BULVARI BURHANIYE MAHALLESI NO:54  54",
        "Latitude":40.842936,
        "Longitude":31.163762
    },
    {
        "CustomerId":482,
        "VisitDuration":"00:30",
        "VisitFreq":1,
        "MustVisitDays":null,
        "EligibilityBeginTime (hh:mm)":"08:30",
        "EligibilityEndTime (hh:mm)":"18:00",
        "Country":"Turkey",
        "City":"Bursa",
        "District":"\u0130neg\u00f6l",
        "AddressText":"BURHANIYE MAHALLESI KEMER SOKAK BURHANIYE MAHALLESI NO:22  22",
        "Latitude":40.08247,
        "Longitude":29.511195
    },
    {
        "CustomerId":490,
        "VisitDuration":"00:30",
        "VisitFreq":1,
        "MustVisitDays":null,
        "EligibilityBeginTime (hh:mm)":"08:30",
        "EligibilityEndTime (hh:mm)":"18:00",
        "Country":"Turkey",
        "City":"AYDIN",
        "District":"K\u00d6\u015eK",
        "AddressText":"\u00c7AR\u015eI MAHALLESI GAZI MUSTAFA KEMAL CADDESI \u00c7AR\u015eI MAHALLESI NO:30\/A  30\/A",
        "Latitude":37.8541946411,
        "Longitude":28.052822113
    },
    {
        "CustomerId":492,
        "VisitDuration":"00:30",
        "VisitFreq":4,
        "MustVisitDays":null,
        "EligibilityBeginTime (hh:mm)":"08:30",
        "EligibilityEndTime (hh:mm)":"18:00",
        "Country":"Turkey",
        "City":"OSMANIYE",
        "District":"KADIRLI",
        "AddressText":"CEMALPA\u015eA MAHALLESI KAMIL KARA BULVARI 195\/A",
        "Latitude":37.363813,
        "Longitude":36.07869
    },
    {
        "CustomerId":494,
        "VisitDuration":"00:30",
        "VisitFreq":4,
        "MustVisitDays":null,
        "EligibilityBeginTime (hh:mm)":"08:30",
        "EligibilityEndTime (hh:mm)":"18:00",
        "Country":"Turkey",
        "City":"ANKARA",
        "District":"MAMAK",
        "AddressText":"CENGIZHAN MAHALLESI SULTAN FATIH CADDESI 24",
        "Latitude":39.894282,
        "Longitude":32.930808
    },
    {
        "CustomerId":506,
        "VisitDuration":"00:30",
        "VisitFreq":4,
        "MustVisitDays":null,
        "EligibilityBeginTime (hh:mm)":"08:30",
        "EligibilityEndTime (hh:mm)":"18:00",
        "Country":"Turkey",
        "City":"MU\u011eLA",
        "District":"YATA\u011eAN",
        "AddressText":"YENI MAHALLESI ATAT\u00dcRK CADDESI YENI MAHALLESI NO:138\/A  138\/A",
        "Latitude":37.343724,
        "Longitude":28.150016
    },
    {
        "CustomerId":511,
        "VisitDuration":"00:30",
        "VisitFreq":1,
        "MustVisitDays":null,
        "EligibilityBeginTime (hh:mm)":"08:30",
        "EligibilityEndTime (hh:mm)":"18:00",
        "Country":"Turkey",
        "City":"\u0130ZMIR",
        "District":"BUCA",
        "AddressText":"UFUK MAHALLESI FEVZI \u00c7AKMAK CADDESI UFUK MAHALLESI NO:179  179",
        "Latitude":38.403203,
        "Longitude":27.164086
    },
    {
        "CustomerId":519,
        "VisitDuration":"00:30",
        "VisitFreq":4,
        "MustVisitDays":null,
        "EligibilityBeginTime (hh:mm)":"08:30",
        "EligibilityEndTime (hh:mm)":"18:00",
        "Country":"Turkey",
        "City":"Bart\u0131n",
        "District":"Merkez",
        "AddressText":"\u00c7AYD\u00dcZ\u00dc MAHALLESI KAZIM KARABEKIR CADDESI \u00c7AYD\u00dcZ\u00dc MAHALLESI NO:16  16",
        "Latitude":41.623509,
        "Longitude":32.361564
    },
    {
        "CustomerId":526,
        "VisitDuration":"00:30",
        "VisitFreq":4,
        "MustVisitDays":null,
        "EligibilityBeginTime (hh:mm)":"08:30",
        "EligibilityEndTime (hh:mm)":"18:00",
        "Country":"Turkey",
        "City":"ISPARTA",
        "District":"MERKEZ",
        "AddressText":"DAVRAZ MAHALLESI FIRDEVS CADDESI DAVRAZ MAHALLESI NO:28  28",
        "Latitude":37.76875,
        "Longitude":30.567234
    },
    {
        "CustomerId":527,
        "VisitDuration":"00:30",
        "VisitFreq":4,
        "MustVisitDays":null,
        "EligibilityBeginTime (hh:mm)":"08:30",
        "EligibilityEndTime (hh:mm)":"18:00",
        "Country":"Turkey",
        "City":"Sakarya",
        "District":"Akyaz\u0131",
        "AddressText":"\u00d6MERCIKLER MAHALLESI  BATAKK\u00d6Y CAD. \u00d6MERCIKLER MAHALLESI NO:12  12",
        "Latitude":40.681416,
        "Longitude":30.623083
    },
    {
        "CustomerId":531,
        "VisitDuration":"00:30",
        "VisitFreq":4,
        "MustVisitDays":null,
        "EligibilityBeginTime (hh:mm)":"08:30",
        "EligibilityEndTime (hh:mm)":"18:00",
        "Country":"Turkey",
        "City":"Kocaeli",
        "District":"Kartepe",
        "AddressText":"K\u00d6RFEZ MAHALLESI BA\u015eAKLI SOKAK K\u00d6RFEZ MAHALLESI NO:23  23",
        "Latitude":40.706446,
        "Longitude":30.104162
    },
    {
        "CustomerId":536,
        "VisitDuration":"00:30",
        "VisitFreq":4,
        "MustVisitDays":null,
        "EligibilityBeginTime (hh:mm)":"08:30",
        "EligibilityEndTime (hh:mm)":"18:00",
        "Country":"Turkey",
        "City":"Kocaeli",
        "District":"Derince",
        "AddressText":"DO\u011eAN MAHALLESI HASAN ATAKAN CADDESI DO\u011eAN MAHALLESI NO:26\/A  26\/A",
        "Latitude":40.765626,
        "Longitude":29.877558
    },
    {
        "CustomerId":539,
        "VisitDuration":"00:30",
        "VisitFreq":4,
        "MustVisitDays":null,
        "EligibilityBeginTime (hh:mm)":"08:30",
        "EligibilityEndTime (hh:mm)":"18:00",
        "Country":"Turkey",
        "City":"Yalova",
        "District":"Alt\u0131nova",
        "AddressText":"YALOVA \u0130ZMIT YOLU MERKEZ MAHALLESI (KAYTAZDERE BLD.) NO:10 ",
        "Latitude":40.695907,
        "Longitude":29.528276
    },
    {
        "CustomerId":546,
        "VisitDuration":"00:30",
        "VisitFreq":4,
        "MustVisitDays":null,
        "EligibilityBeginTime (hh:mm)":"08:30",
        "EligibilityEndTime (hh:mm)":"18:00",
        "Country":"Turkey",
        "City":"VAN",
        "District":"ERCI\u015e",
        "AddressText":"SALIHIYE MAHALLESI EMNIYET CADDESI  38",
        "Latitude":39.028387,
        "Longitude":43.36057
    },
    {
        "CustomerId":548,
        "VisitDuration":"00:30",
        "VisitFreq":4,
        "MustVisitDays":null,
        "EligibilityBeginTime (hh:mm)":"08:30",
        "EligibilityEndTime (hh:mm)":"18:00",
        "Country":"Turkey",
        "City":"Kocaeli",
        "District":"\u0130zmit",
        "AddressText":"ERENLER MAHALLESI DEVE BA\u011eIRTAN SOKAK ERENLER MAHALLESI NO:46  46",
        "Latitude":40.775723,
        "Longitude":29.941614
    },
    {
        "CustomerId":556,
        "VisitDuration":"00:30",
        "VisitFreq":4,
        "MustVisitDays":null,
        "EligibilityBeginTime (hh:mm)":"08:30",
        "EligibilityEndTime (hh:mm)":"18:00",
        "Country":"Turkey",
        "City":"Kocaeli",
        "District":"K\u00f6rfez",
        "AddressText":"ESENTEPE MAHALLESI A\u011eADERE CADDESI ESENTEPE MAHALLESI NO:64\/B  64\/B",
        "Latitude":40.76644279,
        "Longitude":29.79033842
    },
    {
        "CustomerId":569,
        "VisitDuration":"00:30",
        "VisitFreq":4,
        "MustVisitDays":null,
        "EligibilityBeginTime (hh:mm)":"08:30",
        "EligibilityEndTime (hh:mm)":"18:00",
        "Country":"Turkey",
        "City":"Kocaeli",
        "District":"Kartepe",
        "AddressText":"FATIH SULTAN MEHMET MAHALLESI DEMOKRASI CADDESI FATIH SULTAN MEHMET MAHALLESI NO:35\/A  35\/A",
        "Latitude":40.74002826,
        "Longitude":30.01708869
    },
    {
        "CustomerId":577,
        "VisitDuration":"00:30",
        "VisitFreq":1,
        "MustVisitDays":null,
        "EligibilityBeginTime (hh:mm)":"08:30",
        "EligibilityEndTime (hh:mm)":"18:00",
        "Country":"Turkey",
        "City":"BATMAN",
        "District":"MERKEZ",
        "AddressText":"GAP MAHALLESI 2503 SOKAK  6",
        "Latitude":37.8974795641,
        "Longitude":41.1320910986
    },
    {
        "CustomerId":580,
        "VisitDuration":"00:30",
        "VisitFreq":4,
        "MustVisitDays":null,
        "EligibilityBeginTime (hh:mm)":"08:30",
        "EligibilityEndTime (hh:mm)":"18:00",
        "Country":"Turkey",
        "City":"GAZIANTEP",
        "District":"\u015eEHITKAMIL",
        "AddressText":"GAZIKENT MAHALLESI 17. CADDESI 1",
        "Latitude":37.091002,
        "Longitude":37.432433
    },
    {
        "CustomerId":582,
        "VisitDuration":"00:30",
        "VisitFreq":4,
        "MustVisitDays":null,
        "EligibilityBeginTime (hh:mm)":"08:30",
        "EligibilityEndTime (hh:mm)":"18:00",
        "Country":"Turkey",
        "City":"Zonguldak",
        "District":"Zonguldak Merkez",
        "AddressText":"ME\u015eRUTIYET MAHALLESI PTT SOKAK ME\u015eRUTIYET MAHALLESI NO:45297  45297",
        "Latitude":41.45430374,
        "Longitude":31.78882599
    },
    {
        "CustomerId":586,
        "VisitDuration":"00:30",
        "VisitFreq":4,
        "MustVisitDays":null,
        "EligibilityBeginTime (hh:mm)":"08:30",
        "EligibilityEndTime (hh:mm)":"18:00",
        "Country":"Turkey",
        "City":"KAYSERI",
        "District":"KOCASINAN",
        "AddressText":"GEVHERNESIBE MAHALLESI ATAT\u00dcRK BULVARI  10\/A",
        "Latitude":38.7214872518,
        "Longitude":35.4823539779
    },
    {
        "CustomerId":615,
        "VisitDuration":"00:30",
        "VisitFreq":4,
        "MustVisitDays":null,
        "EligibilityBeginTime (hh:mm)":"08:30",
        "EligibilityEndTime (hh:mm)":"18:00",
        "Country":"Turkey",
        "City":"\u0130stanbul",
        "District":"Ka\u011f\u0131thane",
        "AddressText":"Hamidiye Mh. Serdar Sk. No:19 Kagithane ",
        "Latitude":41.093925,
        "Longitude":28.972102
    },
    {
        "CustomerId":619,
        "VisitDuration":"00:30",
        "VisitFreq":4,
        "MustVisitDays":null,
        "EligibilityBeginTime (hh:mm)":"08:30",
        "EligibilityEndTime (hh:mm)":"18:00",
        "Country":"Turkey",
        "City":"Van",
        "District":"Edremit",
        "AddressText":"Urfa Yolu   HAVA ALANI LOJMANLARI C4 BLOK. VAN  1",
        "Latitude":38.464041,
        "Longitude":43.340684
    },
    {
        "CustomerId":621,
        "VisitDuration":"00:30",
        "VisitFreq":1,
        "MustVisitDays":null,
        "EligibilityBeginTime (hh:mm)":"08:30",
        "EligibilityEndTime (hh:mm)":"18:00",
        "Country":"Turkey",
        "City":"BATMAN",
        "District":"MERKEZ",
        "AddressText":"GAP  MAHALLESI Atat\u00fcrk Bulvar\u0131  102\/104",
        "Latitude":37.9041637719,
        "Longitude":41.1319246995
    },
    {
        "CustomerId":624,
        "VisitDuration":"00:30",
        "VisitFreq":4,
        "MustVisitDays":null,
        "EligibilityBeginTime (hh:mm)":"08:30",
        "EligibilityEndTime (hh:mm)":"18:00",
        "Country":"Turkey",
        "City":"Zonguldak",
        "District":"\u00c7aycuma",
        "AddressText":"SALTUKOVA BLD. H\u00dcRRIYET CADDESI SALTUKOVA BLD. NO:75  75",
        "Latitude":41.519765,
        "Longitude":32.094488
    },
    {
        "CustomerId":628,
        "VisitDuration":"00:30",
        "VisitFreq":4,
        "MustVisitDays":null,
        "EligibilityBeginTime (hh:mm)":"08:30",
        "EligibilityEndTime (hh:mm)":"18:00",
        "Country":"Turkey",
        "City":"MU\u015e",
        "District":"MERKEZ",
        "AddressText":"H\u00dcRRIYET MAHALLESI ATAT\u00dcRK BULVARI  95\/A",
        "Latitude":38.741177,
        "Longitude":41.496563
    },
    {
        "CustomerId":630,
        "VisitDuration":"00:30",
        "VisitFreq":4,
        "MustVisitDays":null,
        "EligibilityBeginTime (hh:mm)":"08:30",
        "EligibilityEndTime (hh:mm)":"18:00",
        "Country":"Turkey",
        "City":"BITLIS",
        "District":"MERKEZ",
        "AddressText":"H\u00dcSREV PA\u015eA MAHALLESI SELAHATTIN EYY\u00dcBI CADDESI  1",
        "Latitude":38.4228508,
        "Longitude":42.1251895
    },
    {
        "CustomerId":635,
        "VisitDuration":"00:30",
        "VisitFreq":4,
        "MustVisitDays":null,
        "EligibilityBeginTime (hh:mm)":"08:30",
        "EligibilityEndTime (hh:mm)":"18:00",
        "Country":"Turkey",
        "City":"KAYSERI",
        "District":"DEVELI",
        "AddressText":"\u0130BRAHIMA\u011eA MAHALLESI TEKIR CADDESI  8",
        "Latitude":38.387903,
        "Longitude":35.489936
    },
    {
        "CustomerId":638,
        "VisitDuration":"00:30",
        "VisitFreq":1,
        "MustVisitDays":null,
        "EligibilityBeginTime (hh:mm)":"08:30",
        "EligibilityEndTime (hh:mm)":"18:00",
        "Country":"Turkey",
        "City":"MARDIN",
        "District":"KIZILTEPE",
        "AddressText":"\u0130PEK MAHALLESI ALI ERTA\u015e CADDESI  82",
        "Latitude":37.185014,
        "Longitude":40.582904
    },
    {
        "CustomerId":644,
        "VisitDuration":"00:30",
        "VisitFreq":1,
        "MustVisitDays":null,
        "EligibilityBeginTime (hh:mm)":"08:30",
        "EligibilityEndTime (hh:mm)":"18:00",
        "Country":"Turkey",
        "City":"Yalova",
        "District":"Yalova",
        "AddressText":"ADNAN MENDERES MAHALLESI RAHMI \u00dcSTEL CADDESI ADNAN MENDERES MAHALLESI NO:39  39",
        "Latitude":40.647006,
        "Longitude":29.260319
    },
    {
        "CustomerId":651,
        "VisitDuration":"00:30",
        "VisitFreq":4,
        "MustVisitDays":null,
        "EligibilityBeginTime (hh:mm)":"08:30",
        "EligibilityEndTime (hh:mm)":"18:00",
        "Country":"Turkey",
        "City":"Kocaeli",
        "District":"G\u00f6lc\u00fck",
        "AddressText":"\u0130PEK YOLU MAHALLESI 639. SOKAK \u0130PEK YOLU MAHALLESI NO:1-A  1-A",
        "Latitude":40.7053317,
        "Longitude":29.83503173
    },
    {
        "CustomerId":664,
        "VisitDuration":"00:30",
        "VisitFreq":4,
        "MustVisitDays":null,
        "EligibilityBeginTime (hh:mm)":"08:30",
        "EligibilityEndTime (hh:mm)":"18:00",
        "Country":"Turkey",
        "City":"KONYA",
        "District":"MERAM",
        "AddressText":"ALPASLAN MAHALLESI KARAMAN CADDESI ALPASLAN MAHALLESI NO:380  380",
        "Latitude":37.835741,
        "Longitude":32.513976
    },
    {
        "CustomerId":665,
        "VisitDuration":"00:30",
        "VisitFreq":1,
        "MustVisitDays":null,
        "EligibilityBeginTime (hh:mm)":"08:30",
        "EligibilityEndTime (hh:mm)":"18:00",
        "Country":"Turkey",
        "City":"Bal\u0131kesir",
        "District":"Karesi",
        "AddressText":"MALTEPE MAHALLESI BA\u011eLAR SOKAK MALTEPE MAHALLESI NO:244\/A  244\/A",
        "Latitude":39.665223,
        "Longitude":27.882283
    },
    {
        "CustomerId":667,
        "VisitDuration":"00:30",
        "VisitFreq":4,
        "MustVisitDays":null,
        "EligibilityBeginTime (hh:mm)":"08:30",
        "EligibilityEndTime (hh:mm)":"18:00",
        "Country":"Turkey",
        "City":"\u0130stanbul",
        "District":"Gaziosmanpa\u015fa",
        "AddressText":"Karl\u0131tepe Mah. Ordu Cd.No:228 Gaz\u0131osmanpasa ",
        "Latitude":41.05879,
        "Longitude":28.928457
    },
    {
        "CustomerId":674,
        "VisitDuration":"00:30",
        "VisitFreq":4,
        "MustVisitDays":null,
        "EligibilityBeginTime (hh:mm)":"08:30",
        "EligibilityEndTime (hh:mm)":"18:00",
        "Country":"Turkey",
        "City":"KAYSERI",
        "District":"YAHYALI",
        "AddressText":"SEYDILI MAHALLESI ATAT\u00dcRK BULVARI  57",
        "Latitude":38.101413,
        "Longitude":35.359036
    },
    {
        "CustomerId":679,
        "VisitDuration":"00:30",
        "VisitFreq":1,
        "MustVisitDays":null,
        "EligibilityBeginTime (hh:mm)":"08:30",
        "EligibilityEndTime (hh:mm)":"18:00",
        "Country":"Turkey",
        "City":"Bal\u0131kesir",
        "District":"G\u00f6me\u00e7",
        "AddressText":"MITHATPA\u015eA MAHALLESI ATAT\u00dcRK CADDESI MITHATPA\u015eA MAHALLESI NO:55  55",
        "Latitude":39.3888588,
        "Longitude":26.84056282
    },
    {
        "CustomerId":682,
        "VisitDuration":"00:30",
        "VisitFreq":4,
        "MustVisitDays":null,
        "EligibilityBeginTime (hh:mm)":"08:30",
        "EligibilityEndTime (hh:mm)":"18:00",
        "Country":"Turkey",
        "City":"Zonguldak",
        "District":"Ere\u011fli",
        "AddressText":"KEPEZ MAHALLESI PROF. DR. MUAMMER AKSOY CADDESI KEPEZ MAHALLESI NO:237  237",
        "Latitude":41.26665115,
        "Longitude":31.48150635
    },
    {
        "CustomerId":684,
        "VisitDuration":"00:30",
        "VisitFreq":1,
        "MustVisitDays":null,
        "EligibilityBeginTime (hh:mm)":"08:30",
        "EligibilityEndTime (hh:mm)":"18:00",
        "Country":"Turkey",
        "City":"MANISA",
        "District":"KIRKA\u011eA\u00c7",
        "AddressText":"KOCAMEHMETA\u011eA MAHALLESI \u0130SMAIL HAKKI CADDESI KOCAMEHMETA\u011eA MAHALLESI NO: 34-   34-",
        "Latitude":39.105578,
        "Longitude":27.671106
    },
    {
        "CustomerId":685,
        "VisitDuration":"00:30",
        "VisitFreq":4,
        "MustVisitDays":null,
        "EligibilityBeginTime (hh:mm)":"08:30",
        "EligibilityEndTime (hh:mm)":"18:00",
        "Country":"Turkey",
        "City":"Sakarya",
        "District":"Sapanca",
        "AddressText":"ERSIN CADDESI R\u00dcSTEMPA\u015eA MAHALLESI NO:47\/1-2-3-4-5-6-7 ",
        "Latitude":40.69377385,
        "Longitude":30.2655465
    },
    {
        "CustomerId":696,
        "VisitDuration":"00:30",
        "VisitFreq":4,
        "MustVisitDays":null,
        "EligibilityBeginTime (hh:mm)":"08:30",
        "EligibilityEndTime (hh:mm)":"18:00",
        "Country":"Turkey",
        "City":"D\u00fczce",
        "District":"D\u00fczce Merkez",
        "AddressText":"K\u00d6RPE\u015eLER MAHALLESI H\u00dcRRIYET CADDESI K\u00d6RPE\u015eLER MAHALLESI NO:48  48",
        "Latitude":40.854174,
        "Longitude":31.155165
    },
    {
        "CustomerId":702,
        "VisitDuration":"00:30",
        "VisitFreq":1,
        "MustVisitDays":null,
        "EligibilityBeginTime (hh:mm)":"08:30",
        "EligibilityEndTime (hh:mm)":"18:00",
        "Country":"Turkey",
        "City":"Bal\u0131kesir",
        "District":"G\u00f6nen",
        "AddressText":"KURTULU\u015e MAHALLESI KIZILAY CADDESI KURTULU\u015e MAHALLESI NO:34  34",
        "Latitude":40.110532,
        "Longitude":27.657165
    },
    {
        "CustomerId":706,
        "VisitDuration":"00:30",
        "VisitFreq":4,
        "MustVisitDays":null,
        "EligibilityBeginTime (hh:mm)":"08:30",
        "EligibilityEndTime (hh:mm)":"18:00",
        "Country":"Turkey",
        "City":"MU\u015e",
        "District":"VARTO",
        "AddressText":"K\u00dcLT\u00dcR MAHALLESI CUMHURIYET CADDESI  53",
        "Latitude":38.734863,
        "Longitude":41.495524
    },
    {
        "CustomerId":714,
        "VisitDuration":"00:30",
        "VisitFreq":4,
        "MustVisitDays":null,
        "EligibilityBeginTime (hh:mm)":"08:30",
        "EligibilityEndTime (hh:mm)":"18:00",
        "Country":"Turkey",
        "City":"ADANA",
        "District":"SARI\u00c7AM",
        "AddressText":"MEHMET AKIF ERSOY MAHALLESI KOZAN CADDESI 264\/A",
        "Latitude":37.016372,
        "Longitude":35.386709
    },
    {
        "CustomerId":715,
        "VisitDuration":"00:30",
        "VisitFreq":4,
        "MustVisitDays":null,
        "EligibilityBeginTime (hh:mm)":"08:30",
        "EligibilityEndTime (hh:mm)":"18:00",
        "Country":"Turkey",
        "City":"Kocaeli",
        "District":"\u0130zmit",
        "AddressText":"M. ALIPA\u015eA MAHALLESI BA\u011eDAT CADDESI M. ALIPA\u015eA MAHALLESI NO:1  1",
        "Latitude":40.767357,
        "Longitude":29.952767
    },
    {
        "CustomerId":722,
        "VisitDuration":"00:30",
        "VisitFreq":4,
        "MustVisitDays":null,
        "EligibilityBeginTime (hh:mm)":"08:30",
        "EligibilityEndTime (hh:mm)":"18:00",
        "Country":"Turkey",
        "City":"\u0130stanbul",
        "District":"K\u00fc\u00e7\u00fck\u00e7ekmece",
        "AddressText":"Mehmet Ak\u0131f Mh.K.Pasa Cd.T\u00fcrkmen Sk.No:34\/Ik\u0131tell\u0131 ",
        "Latitude":41.05609803,
        "Longitude":28.80168912
    },
    {
        "CustomerId":730,
        "VisitDuration":"00:30",
        "VisitFreq":4,
        "MustVisitDays":null,
        "EligibilityBeginTime (hh:mm)":"08:30",
        "EligibilityEndTime (hh:mm)":"18:00",
        "Country":"Turkey",
        "City":"\u0130stanbul",
        "District":"Esenyurt",
        "AddressText":"Merkez Mah. Baglar\u00e7esme Cad. No:1 ",
        "Latitude":41.034273,
        "Longitude":28.677106
    },
    {
        "CustomerId":732,
        "VisitDuration":"00:30",
        "VisitFreq":4,
        "MustVisitDays":null,
        "EligibilityBeginTime (hh:mm)":"08:30",
        "EligibilityEndTime (hh:mm)":"18:00",
        "Country":"Turkey",
        "City":"ANTALYA",
        "District":"ALANYA",
        "AddressText":"AVSALLAR MAHALLESI HATIP SOKAK AVSALLAR MAHALLESI NO:13  13",
        "Latitude":36.6214408875,
        "Longitude":31.7726860046
    },
    {
        "CustomerId":734,
        "VisitDuration":"00:30",
        "VisitFreq":4,
        "MustVisitDays":null,
        "EligibilityBeginTime (hh:mm)":"08:30",
        "EligibilityEndTime (hh:mm)":"18:00",
        "Country":"Turkey",
        "City":"Kocaeli",
        "District":"G\u00f6lc\u00fck",
        "AddressText":"MERKEZ MAHALLESI PREVEZE CADDESI MERKEZ MAHALLESI NO:69  69",
        "Latitude":40.717471,
        "Longitude":29.823538
    },
    {
        "CustomerId":742,
        "VisitDuration":"00:30",
        "VisitFreq":4,
        "MustVisitDays":null,
        "EligibilityBeginTime (hh:mm)":"08:30",
        "EligibilityEndTime (hh:mm)":"18:00",
        "Country":"Turkey",
        "City":"Kocaeli",
        "District":"K\u00f6rfez",
        "AddressText":"MIMAR SINAN MAHALLESI MEHMET AKIF ERSOY CADDESI MIMAR SINAN MAHALLESI NO:136  136",
        "Latitude":40.769798,
        "Longitude":29.753812
    },
    {
        "CustomerId":746,
        "VisitDuration":"00:30",
        "VisitFreq":4,
        "MustVisitDays":null,
        "EligibilityBeginTime (hh:mm)":"08:30",
        "EligibilityEndTime (hh:mm)":"18:00",
        "Country":"Turkey",
        "City":"Edirne",
        "District":"Merkez",
        "AddressText":"Muammer Aksoy Cad.Emlak D\u00fck.3\/4 Ed\u0131rne \/Merkez\/Ed\u0131rne ",
        "Latitude":41.65342,
        "Longitude":26.595729
    },
    {
        "CustomerId":752,
        "VisitDuration":"00:30",
        "VisitFreq":1,
        "MustVisitDays":null,
        "EligibilityBeginTime (hh:mm)":"08:30",
        "EligibilityEndTime (hh:mm)":"18:00",
        "Country":"Turkey",
        "City":"MANISA",
        "District":"SOMA",
        "AddressText":"NAMAZGAH MAHALLESI ADALET CADDESI NAMAZGAH MAHALLESI NO:24\/A  24\/A",
        "Latitude":39.183133,
        "Longitude":27.601281
    },
    {
        "CustomerId":764,
        "VisitDuration":"00:30",
        "VisitFreq":4,
        "MustVisitDays":null,
        "EligibilityBeginTime (hh:mm)":"08:30",
        "EligibilityEndTime (hh:mm)":"18:00",
        "Country":"Turkey",
        "City":"NI\u011eDE",
        "District":"MERKEZ",
        "AddressText":"\u015eAHINALI MAHALLESI ESIN ERI\u015eINGI CADDESI  27\/D",
        "Latitude":37.971502,
        "Longitude":34.683197
    },
    {
        "CustomerId":765,
        "VisitDuration":"00:30",
        "VisitFreq":1,
        "MustVisitDays":null,
        "EligibilityBeginTime (hh:mm)":"08:30",
        "EligibilityEndTime (hh:mm)":"18:00",
        "Country":"Turkey",
        "City":"Bursa",
        "District":"Nil\u00fcfer",
        "AddressText":"BALAT MAHALLESI 5. SOKAK BALAT MAHALLESI NO:1  1",
        "Latitude":40.254702,
        "Longitude":28.952846
    },
    {
        "CustomerId":769,
        "VisitDuration":"00:30",
        "VisitFreq":4,
        "MustVisitDays":null,
        "EligibilityBeginTime (hh:mm)":"08:30",
        "EligibilityEndTime (hh:mm)":"18:00",
        "Country":"Turkey",
        "City":"KAYSERI",
        "District":"MELIKGAZI",
        "AddressText":"OSMANLI MAHALLESI EDIP \u00c7IKMAZI  5",
        "Latitude":38.6898090469,
        "Longitude":35.4750590399
    },
    {
        "CustomerId":779,
        "VisitDuration":"00:30",
        "VisitFreq":4,
        "MustVisitDays":null,
        "EligibilityBeginTime (hh:mm)":"08:30",
        "EligibilityEndTime (hh:mm)":"18:00",
        "Country":"Turkey",
        "City":"Diyarbak\u0131r",
        "District":"Merkez",
        "AddressText":"PEYAS MAH.  FIRAT BULV. FURKAN 19 APT  150",
        "Latitude":37.933038,
        "Longitude":40.162127
    },
    {
        "CustomerId":782,
        "VisitDuration":"00:30",
        "VisitFreq":4,
        "MustVisitDays":null,
        "EligibilityBeginTime (hh:mm)":"08:30",
        "EligibilityEndTime (hh:mm)":"18:00",
        "Country":"Turkey",
        "City":"KONYA",
        "District":"ERE\u011eLI",
        "AddressText":"PIR\u00d6MER MAHALLESI HACI NEBI SK PIR\u00d6MER MAHALLESI NO:15  15",
        "Latitude":37.51371,
        "Longitude":34.046113
    },
    {
        "CustomerId":786,
        "VisitDuration":"00:30",
        "VisitFreq":4,
        "MustVisitDays":null,
        "EligibilityBeginTime (hh:mm)":"08:30",
        "EligibilityEndTime (hh:mm)":"18:00",
        "Country":"Turkey",
        "City":"RIZE",
        "District":"MERKEZ",
        "AddressText":"PIRI\u00c7ELEBI MAHALLESI ATAT\u00dcRK CADDESI  312",
        "Latitude":41.026348,
        "Longitude":40.51489
    },
    {
        "CustomerId":789,
        "VisitDuration":"00:30",
        "VisitFreq":4,
        "MustVisitDays":null,
        "EligibilityBeginTime (hh:mm)":"08:30",
        "EligibilityEndTime (hh:mm)":"18:00",
        "Country":"Turkey",
        "City":"Sakarya",
        "District":"Hendek",
        "AddressText":"BA\u015ePINAR MAHALLESI MUAMMER SENCER CADDESI BA\u015ePINAR MAHALLESI NO:28  28",
        "Latitude":40.796983,
        "Longitude":30.74302
    },
    {
        "CustomerId":790,
        "VisitDuration":"00:30",
        "VisitFreq":4,
        "MustVisitDays":null,
        "EligibilityBeginTime (hh:mm)":"08:30",
        "EligibilityEndTime (hh:mm)":"18:00",
        "Country":"Turkey",
        "City":"Bolu",
        "District":"Bolu Merkez",
        "AddressText":"SA\u011eLIK MAHALLESI KARADERE CADDESI SA\u011eLIK MAHALLESI NO:25  25",
        "Latitude":40.741485,
        "Longitude":31.617103
    },
    {
        "CustomerId":792,
        "VisitDuration":"00:30",
        "VisitFreq":4,
        "MustVisitDays":null,
        "EligibilityBeginTime (hh:mm)":"08:30",
        "EligibilityEndTime (hh:mm)":"18:00",
        "Country":"Turkey",
        "City":"GAZIANTEP",
        "District":"\u015eAHINBEY",
        "AddressText":"\u015eAHINTEPE MAHALLESI 133394. CADDESI 3\/A",
        "Latitude":37.019038,
        "Longitude":37.339248
    },
    {
        "CustomerId":796,
        "VisitDuration":"00:30",
        "VisitFreq":4,
        "MustVisitDays":null,
        "EligibilityBeginTime (hh:mm)":"08:30",
        "EligibilityEndTime (hh:mm)":"18:00",
        "Country":"Turkey",
        "City":"Kocaeli",
        "District":"\u0130zmit",
        "AddressText":"SANAYI MAHALLESI KARAYOLU CADDESI SANAYI MAHALLESI NO:300  300",
        "Latitude":40.7572963,
        "Longitude":29.9630226
    },
    {
        "CustomerId":798,
        "VisitDuration":"00:30",
        "VisitFreq":4,
        "MustVisitDays":null,
        "EligibilityBeginTime (hh:mm)":"08:30",
        "EligibilityEndTime (hh:mm)":"18:00",
        "Country":"Turkey",
        "City":"KAHRAMANMARA\u015e",
        "District":"ONIKI\u015eUBAT",
        "AddressText":"\u015eAZI BEY MAHALLESI ORHAN SEZAL BULVARI 27",
        "Latitude":37.564808,
        "Longitude":36.919525
    },
    {
        "CustomerId":799,
        "VisitDuration":"00:30",
        "VisitFreq":4,
        "MustVisitDays":null,
        "EligibilityBeginTime (hh:mm)":"08:30",
        "EligibilityEndTime (hh:mm)":"18:00",
        "Country":"Turkey",
        "City":"KAHRAMANMARA\u015e",
        "District":"ONIKI\u015eUBAT",
        "AddressText":"\u015eAZI BEY MAHALLESI ORHAN SEZAL BULVARI 2",
        "Latitude":37.564735,
        "Longitude":36.916813
    },
    {
        "CustomerId":800,
        "VisitDuration":"00:30",
        "VisitFreq":1,
        "MustVisitDays":null,
        "EligibilityBeginTime (hh:mm)":"08:30",
        "EligibilityEndTime (hh:mm)":"18:00",
        "Country":"Turkey",
        "City":"Yalova",
        "District":"Yalova",
        "AddressText":"S\u00dcLEYMAN BEY MAHALLESI SEFABEY CADDESI S\u00dcLEYMAN BEY MAHALLESI NO:7\/A  7\/A",
        "Latitude":40.657157,
        "Longitude":29.273852
    },
    {
        "CustomerId":809,
        "VisitDuration":"00:30",
        "VisitFreq":4,
        "MustVisitDays":null,
        "EligibilityBeginTime (hh:mm)":"08:30",
        "EligibilityEndTime (hh:mm)":"18:00",
        "Country":"Turkey",
        "City":"Kocaeli",
        "District":"Ba\u015fiskele",
        "AddressText":"SERDAR MAHALLESI PASINLER CADDESI SERDAR MAHALLESI NO:18\/!  18\/!",
        "Latitude":40.709804,
        "Longitude":29.942799
    },
    {
        "CustomerId":826,
        "VisitDuration":"00:30",
        "VisitFreq":4,
        "MustVisitDays":null,
        "EligibilityBeginTime (hh:mm)":"08:30",
        "EligibilityEndTime (hh:mm)":"18:00",
        "Country":"Turkey",
        "City":"ADANA",
        "District":"SEYHAN",
        "AddressText":"S\u00dcMER MAHALLESI \u0130BO OSMAN CADDESI 6\/A",
        "Latitude":37.010822,
        "Longitude":35.315235
    },
    {
        "CustomerId":828,
        "VisitDuration":"00:30",
        "VisitFreq":1,
        "MustVisitDays":null,
        "EligibilityBeginTime (hh:mm)":"08:30",
        "EligibilityEndTime (hh:mm)":"18:00",
        "Country":"Turkey",
        "City":"MANISA",
        "District":"KIRKA\u011eA\u00c7",
        "AddressText":"\u015eAIR E\u015eREF MAHALLESI 82. SOKAK \u015eAIR E\u015eREF MAHALLESI NO:47\/A  47\/A",
        "Latitude":39.1062822507,
        "Longitude":27.6778843547
    },
    {
        "CustomerId":834,
        "VisitDuration":"00:30",
        "VisitFreq":4,
        "MustVisitDays":null,
        "EligibilityBeginTime (hh:mm)":"08:30",
        "EligibilityEndTime (hh:mm)":"18:00",
        "Country":"Turkey",
        "City":"AKSARAY",
        "District":"MERKEZ",
        "AddressText":"TA\u015ePAZAR MAHALLESI 855. SOKAK TA\u015ePAZAR MAHALLESI NO:45308  45308",
        "Latitude":38.367586,
        "Longitude":34.006995
    },
    {
        "CustomerId":844,
        "VisitDuration":"00:30",
        "VisitFreq":4,
        "MustVisitDays":null,
        "EligibilityBeginTime (hh:mm)":"08:30",
        "EligibilityEndTime (hh:mm)":"18:00",
        "Country":"Turkey",
        "City":"BITLIS",
        "District":"TATVAN",
        "AddressText":"TU\u011e MAHALLESI CUMHURIYET CADDESI  320",
        "Latitude":38.489730835,
        "Longitude":42.2907905579
    },
    {
        "CustomerId":846,
        "VisitDuration":"00:30",
        "VisitFreq":4,
        "MustVisitDays":null,
        "EligibilityBeginTime (hh:mm)":"08:30",
        "EligibilityEndTime (hh:mm)":"18:00",
        "Country":"Turkey",
        "City":"Kocaeli",
        "District":"\u0130zmit",
        "AddressText":"YE\u015eILOVA MAHALLESI TURAN G\u00dcNE\u015e CADDESI YE\u015eILOVA MAHALLESI NO:446  446",
        "Latitude":40.787123,
        "Longitude":29.971717
    },
    {
        "CustomerId":865,
        "VisitDuration":"00:30",
        "VisitFreq":4,
        "MustVisitDays":null,
        "EligibilityBeginTime (hh:mm)":"08:30",
        "EligibilityEndTime (hh:mm)":"18:00",
        "Country":"Turkey",
        "City":"ADANA",
        "District":"Y\u00dcRE\u011eIR",
        "AddressText":"YAVUZLAR MAHALLESI ORHAN KEMAL BULVARI 213\/B",
        "Latitude":37.002029,
        "Longitude":35.34426
    },
    {
        "CustomerId":875,
        "VisitDuration":"00:30",
        "VisitFreq":4,
        "MustVisitDays":null,
        "EligibilityBeginTime (hh:mm)":"08:30",
        "EligibilityEndTime (hh:mm)":"18:00",
        "Country":"Turkey",
        "City":"Karab\u00fck",
        "District":"Safranbolu",
        "AddressText":"YENIMAHALLE MAHALLESI SADRI ARTUN\u00c7 CADDESI YENIMAHALLE MAHALLESI NO:27  27",
        "Latitude":41.251448,
        "Longitude":32.680901
    },
    {
        "CustomerId":876,
        "VisitDuration":"00:30",
        "VisitFreq":4,
        "MustVisitDays":null,
        "EligibilityBeginTime (hh:mm)":"08:30",
        "EligibilityEndTime (hh:mm)":"18:00",
        "Country":"Turkey",
        "City":"D\u00fczce",
        "District":"Merkez",
        "AddressText":"YENI MAHALLESI T\u00dcFEK SOKAK YENI MAHALLESI NO:44\/E  44\/E",
        "Latitude":40.851141,
        "Longitude":31.154743
    },
    {
        "CustomerId":881,
        "VisitDuration":"00:30",
        "VisitFreq":1,
        "MustVisitDays":null,
        "EligibilityBeginTime (hh:mm)":"08:30",
        "EligibilityEndTime (hh:mm)":"18:00",
        "Country":"Turkey",
        "City":"Bursa",
        "District":"Osmangazi",
        "AddressText":"YENIBA\u011eLAR MAHALLESI YAKUT SOKAK YENIBA\u011eLAR MAHALLESI NO:3  3",
        "Latitude":40.255976,
        "Longitude":28.970498
    },
    {
        "CustomerId":888,
        "VisitDuration":"00:30",
        "VisitFreq":4,
        "MustVisitDays":null,
        "EligibilityBeginTime (hh:mm)":"08:30",
        "EligibilityEndTime (hh:mm)":"18:00",
        "Country":"Turkey",
        "City":"KAYSERI",
        "District":"KOCASINAN",
        "AddressText":"YENIPERVANE MAHALLESI 4. CADDESI  59\/A",
        "Latitude":38.743748,
        "Longitude":35.507205
    },
    {
        "CustomerId":890,
        "VisitDuration":"00:30",
        "VisitFreq":4,
        "MustVisitDays":null,
        "EligibilityBeginTime (hh:mm)":"08:30",
        "EligibilityEndTime (hh:mm)":"18:00",
        "Country":"Turkey",
        "City":"Kocaeli",
        "District":"K\u00f6rfez",
        "AddressText":"YENIYALI MAHALLESI BELEN CADDESI YENIYALI MAHALLESI NO:24  24",
        "Latitude":40.766029,
        "Longitude":29.782999
    },
    {
        "CustomerId":895,
        "VisitDuration":"00:30",
        "VisitFreq":4,
        "MustVisitDays":null,
        "EligibilityBeginTime (hh:mm)":"08:30",
        "EligibilityEndTime (hh:mm)":"18:00",
        "Country":"Turkey",
        "City":"\u0130stanbul",
        "District":"Gaziosmanpa\u015fa",
        "AddressText":"Yeni Mh. Hekimsuyu Cd. No:13 Gaziosmanpasa ",
        "Latitude":41.073936,
        "Longitude":28.90455
    },
    {
        "CustomerId":919,
        "VisitDuration":"00:30",
        "VisitFreq":1,
        "MustVisitDays":null,
        "EligibilityBeginTime (hh:mm)":"08:30",
        "EligibilityEndTime (hh:mm)":"18:00",
        "Country":"Turkey",
        "City":"MANISA",
        "District":"SOMA",
        "AddressText":"TURGUTALP MAHALLESI AKHISAR BERGAMA YOLU TURGUTALP MAHALLESI NO:178  178",
        "Latitude":39.187806,
        "Longitude":27.567219
    },
    {
        "CustomerId":923,
        "VisitDuration":"00:30",
        "VisitFreq":4,
        "MustVisitDays":null,
        "EligibilityBeginTime (hh:mm)":"08:30",
        "EligibilityEndTime (hh:mm)":"18:00",
        "Country":"Turkey",
        "City":"MALATYA",
        "District":"BATTALGAZI",
        "AddressText":"ASLANBEY MAHALLESI NIYAZI SOKAK  14\/B",
        "Latitude":38.3486917171,
        "Longitude":38.3057372997
    },
    {
        "CustomerId":935,
        "VisitDuration":"00:30",
        "VisitFreq":1,
        "MustVisitDays":null,
        "EligibilityBeginTime (hh:mm)":"08:30",
        "EligibilityEndTime (hh:mm)":"18:00",
        "Country":"Turkey",
        "City":"\u0130ZMIR",
        "District":"KARABA\u011eLAR",
        "AddressText":"YUNUS EMRE MAHALLESI 4240. SOKAK YUNUS EMRE MAHALLESI NO:18\/A  18\/A",
        "Latitude":38.370901,
        "Longitude":27.121248
    },
    {
        "CustomerId":958,
        "VisitDuration":"00:30",
        "VisitFreq":4,
        "MustVisitDays":null,
        "EligibilityBeginTime (hh:mm)":"08:30",
        "EligibilityEndTime (hh:mm)":"18:00",
        "Country":"Turkey",
        "City":"KARAMAN",
        "District":"MERKEZ",
        "AddressText":"AHIOSMAN MAHALLESI 35. SOKAK AHIOSMAN MAHALLESI NO:9  9",
        "Latitude":37.184627,
        "Longitude":33.217104
    },
    {
        "CustomerId":981,
        "VisitDuration":"00:30",
        "VisitFreq":4,
        "MustVisitDays":null,
        "EligibilityBeginTime (hh:mm)":"08:30",
        "EligibilityEndTime (hh:mm)":"18:00",
        "Country":"Turkey",
        "City":"KAYSERI",
        "District":"KOCASINAN",
        "AddressText":"ALSANCAK MAHALLESI 5. SOKAK  29",
        "Latitude":38.740856,
        "Longitude":35.507451
    },
    {
        "CustomerId":997,
        "VisitDuration":"00:30",
        "VisitFreq":4,
        "MustVisitDays":null,
        "EligibilityBeginTime (hh:mm)":"08:30",
        "EligibilityEndTime (hh:mm)":"18:00",
        "Country":"Turkey",
        "City":"KIR\u015eEHIR",
        "District":"MERKEZ",
        "AddressText":"A\u015eIKPA\u015eA MAHALLESI A\u015eIK PA\u015eA BULVARI  1",
        "Latitude":39.148081,
        "Longitude":34.1648
    },
    {
        "CustomerId":1000,
        "VisitDuration":"00:30",
        "VisitFreq":4,
        "MustVisitDays":null,
        "EligibilityBeginTime (hh:mm)":"08:30",
        "EligibilityEndTime (hh:mm)":"18:00",
        "Country":"Turkey",
        "City":"NI\u011eDE",
        "District":"MERKEZ",
        "AddressText":"A\u015eA\u011eI KAYABA\u015eI MAHALLESI DR. SAMI YA\u011eIZ CADDESI  72\/A",
        "Latitude":37.963213,
        "Longitude":34.668603
    },
    {
        "CustomerId":1031,
        "VisitDuration":"00:30",
        "VisitFreq":4,
        "MustVisitDays":null,
        "EligibilityBeginTime (hh:mm)":"08:30",
        "EligibilityEndTime (hh:mm)":"18:00",
        "Country":"Turkey",
        "City":"\u0130stanbul",
        "District":"Sar\u0131yer",
        "AddressText":"Ayazaga Mh. Dereboyu Cd. No:40-42 Sariyer ",
        "Latitude":41.16911,
        "Longitude":29.056152
    },
    {
        "CustomerId":1054,
        "VisitDuration":"00:30",
        "VisitFreq":4,
        "MustVisitDays":null,
        "EligibilityBeginTime (hh:mm)":"08:30",
        "EligibilityEndTime (hh:mm)":"18:00",
        "Country":"Turkey",
        "City":"Kastamonu",
        "District":"Tosya",
        "AddressText":"\u0130BNI SELIM MAHALLESI F. \u00c7AKMAK SOKAK \u0130BNI SELIM MAHALLESI NO:1  1",
        "Latitude":41.016806,
        "Longitude":34.036465
    },