[
    {
        "CustomerId": 2,
        "VisitDuration": "00:30",
        "VisitFreq": 4,
        "MustVisitDays": "Sat",
        "EligibilityBeginTime (hh:mm)": "08:30",
        "EligibilityEndTime (hh:mm)": "12:00",
        "Country": "Turkey",
        "City": "ERZURUM",
        "District": "YAKUTIYE",
        "AddressText": "İSTASYON MAHALLESI11111 İSTASYON CADDESI11111  1",
        "Latitude": 39.913934,
        "Longitude": 41.270719
    },
    {
        "CustomerId": 7,
        "VisitDuration": "00:30",
        "VisitFreq": 4,
        "MustVisitDays": null,
        "EligibilityBeginTime (hh:mm)": "08:30",
        "EligibilityEndTime (hh:mm)": "18:00",
        "Country": "Turkey",
        "City": "ADANA",
        "District": "YÜREĞIR",
        "AddressText": "19 MAYIS MAHALLESI ÇUKUROVA CADDESI 300",
        "Latitude": 36.980521,
        "Longitude": 35.367678
    },
    {
        "CustomerId": 13,
        "VisitDuration": "00:30",
        "VisitFreq": 4,
        "MustVisitDays": null,
        "EligibilityBeginTime (hh:mm)": "08:30",
        "EligibilityEndTime (hh:mm)": "18:00",
        "Country": "Turkey",
        "City": "Karabük",
        "District": "Safranbolu",
        "AddressText": "5000 EVLER 75. YIL MH 71. SOKAK 5000 EVLER 75. YIL MH NO:6  6",
        "Latitude": 41.233278,
        "Longitude": 32.66107
    },
    {
        "CustomerId": 17,
        "VisitDuration": "00:30",
        "VisitFreq": 1,
        "MustVisitDays": null,
        "EligibilityBeginTime (hh:mm)": "08:30",
        "EligibilityEndTime (hh:mm)": "18:00",
        "Country": "Turkey",
        "City": "MANISA",
        "District": "YUNUSEMRE",
        "AddressText": "75. YIL MAHALLESI BAHRI SARITEPE CADDESI 75. YIL MAHALLESI NO:71/A  71/A",
        "Latitude": 38.6146272369,
        "Longitude": 27.3817652423
    },
    {
        "CustomerId": 18,
        "VisitDuration": "00:30",
        "VisitFreq": 1,
        "MustVisitDays": null,
        "EligibilityBeginTime (hh:mm)": "08:30",
        "EligibilityEndTime (hh:mm)": "18:00",
        "Country": "Turkey",
        "City": "İZMIR",
        "District": "KONAK",
        "AddressText": "Kemeraltı 871. SOKAK Kemeraltı NO:52  52",
        "Latitude": 38.333603,
        "Longitude": 27.133406
    },
    {
        "CustomerId": 24,
        "VisitDuration": "00:30",
        "VisitFreq": 4,
        "MustVisitDays": null,
        "EligibilityBeginTime (hh:mm)": "08:30",
        "EligibilityEndTime (hh:mm)": "18:00",
        "Country": "Turkey",
        "City": "MERSIN",
        "District": "TOROSLAR",
        "AddressText": "AKBELEN MAHALLESI AKBELEN BULVARI 172",
        "Latitude": 36.831359,
        "Longitude": 34.591038
    },
    {
        "CustomerId": 29,
        "VisitDuration": "00:30",
        "VisitFreq": 4,
        "MustVisitDays": null,
        "EligibilityBeginTime (hh:mm)": "08:30",
        "EligibilityEndTime (hh:mm)": "18:00",
        "Country": "Turkey",
        "City": "ÇORUM",
        "District": "MERKEZ",
        "AddressText": "KUNDUZHAN MAHALLESI TOPTANCILAR SITESI  6",
        "Latitude": 40.535773,
        "Longitude": 34.921053
    },
    {
        "CustomerId": 32,
        "VisitDuration": "00:30",
        "VisitFreq": 4,
        "MustVisitDays": null,
        "EligibilityBeginTime (hh:mm)": "08:30",
        "EligibilityEndTime (hh:mm)": "18:00",
        "Country": "Turkey",
        "City": "GAZIANTEP",
        "District": "ŞEHITKAMIL",
        "AddressText": "BUDAK MAHALLESI ALI FUAT CEBESOY BULVARI 44",
        "Latitude": 37.073002,
        "Longitude": 37.368371
    },
    {
        "CustomerId": 33,
        "VisitDuration": "00:30",
        "VisitFreq": 4,
        "MustVisitDays": null,
        "EligibilityBeginTime (hh:mm)": "08:30",
        "EligibilityEndTime (hh:mm)": "18:00",
        "Country": "Turkey",
        "City": "GAZIANTEP",
        "District": "ŞEHITKAMIL",
        "AddressText": "BUDAK MAHALLESI ALI FUAT CEBESOY BULVARI 40",
        "Latitude": 37.072963,
        "Longitude": 37.366818
    },
    {
        "CustomerId": 40,
        "VisitDuration": "00:30",
        "VisitFreq": 4,
        "MustVisitDays": null,
        "EligibilityBeginTime (hh:mm)": "08:30",
        "EligibilityEndTime (hh:mm)": "18:00",
        "Country": "Turkey",
        "City": "ESKIŞEHIR",
        "District": "ODUNPAZARI",
        "AddressText": "ARİFİYE MAH İKI EYLÜL CADDESI 90/A",
        "Latitude": 39.7691159172,
        "Longitude": 30.5215377459
    },
    {
        "CustomerId": 44,
        "VisitDuration": "00:30",
        "VisitFreq": 4,
        "MustVisitDays": null,
        "EligibilityBeginTime (hh:mm)": "08:30",
        "EligibilityEndTime (hh:mm)": "18:00",
        "Country": "Turkey",
        "City": "Muş",
        "District": "Merkez",
        "AddressText": "hürriyet mahallesi ATATÜRK BULVARI SUBAY GAZINOSU KARSISI   55",
        "Latitude": 38.740604,
        "Longitude": 41.496265
    },
    {
        "CustomerId": 45,
        "VisitDuration": "00:30",
        "VisitFreq": 4,
        "MustVisitDays": null,
        "EligibilityBeginTime (hh:mm)": "08:30",
        "EligibilityEndTime (hh:mm)": "18:00",
        "Country": "Turkey",
        "City": "Zonguldak",
        "District": "Devrek",
        "AddressText": "İSMET PAŞA MAHALLESI DR. VEYSEL ATASOY CADDESI İSMET PAŞA MAHALLESI NO:8/A  8/A",
        "Latitude": 41.218011,
        "Longitude": 31.954075
    },
    {
        "CustomerId": 51,
        "VisitDuration": "00:30",
        "VisitFreq": 1,
        "MustVisitDays": null,
        "EligibilityBeginTime (hh:mm)": "08:30",
        "EligibilityEndTime (hh:mm)": "18:00",
        "Country": "Turkey",
        "City": "MARDIN",
        "District": "KIZILTEPE",
        "AddressText": "TEPEBAŞI MAHALLESI 151. SOKAK  10",
        "Latitude": 37.189424,
        "Longitude": 40.59547
    },
    {
        "CustomerId": 56,
        "VisitDuration": "00:30",
        "VisitFreq": 4,
        "MustVisitDays": null,
        "EligibilityBeginTime (hh:mm)": "08:30",
        "EligibilityEndTime (hh:mm)": "18:00",
        "Country": "Turkey",
        "City": "Edirne",
        "District": "Merkez",
        "AddressText": "B.Camı Mah. Inönü Cad. No:66 Kesan / Edırne /Merkez/Edırne ",
        "Latitude": 40.852958,
        "Longitude": 26.631553
    },
    {
        "CustomerId": 59,
        "VisitDuration": "00:30",
        "VisitFreq": 4,
        "MustVisitDays": null,
        "EligibilityBeginTime (hh:mm)": "08:30",
        "EligibilityEndTime (hh:mm)": "18:00",
        "Country": "Turkey",
        "City": "DIYARBAKIR",
        "District": "BAĞLAR",
        "AddressText": "BAĞCILAR MAHALLESI 1101. SOKAK  12",
        "Latitude": 37.92775,
        "Longitude": 40.180216
    },
    {
        "CustomerId": 61,
        "VisitDuration": "00:30",
        "VisitFreq": 1,
        "MustVisitDays": null,
        "EligibilityBeginTime (hh:mm)": "08:30",
        "EligibilityEndTime (hh:mm)": "18:00",
        "Country": "Turkey",
        "City": "Batman",
        "District": "Merkez",
        "AddressText": "BAPLAR MAH BAĞLAR, KIBRIS ŞEHITLERI BLV.  203",
        "Latitude": 37.8938134,
        "Longitude": 41.1226611
    },
    {
        "CustomerId": 67,
        "VisitDuration": "00:30",
        "VisitFreq": 4,
        "MustVisitDays": null,
        "EligibilityBeginTime (hh:mm)": "08:30",
        "EligibilityEndTime (hh:mm)": "18:00",
        "Country": "Turkey",
        "City": "Edirne",
        "District": "Merkez",
        "AddressText": "Balık Pazarı Cd.No:55 Edırne /Merkez/Edırne ",
        "Latitude": 41.674116,
        "Longitude": 26.551221
    },
    {
        "CustomerId": 73,
        "VisitDuration": "00:30",
        "VisitFreq": 4,
        "MustVisitDays": null,
        "EligibilityBeginTime (hh:mm)": "08:30",
        "EligibilityEndTime (hh:mm)": "18:00",
        "Country": "Turkey",
        "City": "ANKARA",
        "District": "MAMAK",
        "AddressText": "BAŞAK MAHALLESI KARAPÜRÇEK CADDESI 10/A",
        "Latitude": 39.966753,
        "Longitude": 32.949325
    },
    {
        "CustomerId": 82,
        "VisitDuration": "00:30",
        "VisitFreq": 4,
        "MustVisitDays": null,
        "EligibilityBeginTime (hh:mm)": "08:30",
        "EligibilityEndTime (hh:mm)": "18:00",
        "Country": "Turkey",
        "City": "MERSIN",
        "District": "ERDEMLI",
        "AddressText": "AKDENIZ MAHALLESI ALPARSLAN TÜRKEŞ BULVARI 513",
        "Latitude": 36.602887,
        "Longitude": 34.304702
    },
    {
        "CustomerId": 85,
        "VisitDuration": "00:30",
        "VisitFreq": 4,
        "MustVisitDays": null,
        "EligibilityBeginTime (hh:mm)": "08:30",
        "EligibilityEndTime (hh:mm)": "18:00",
        "Country": "Turkey",
        "City": "ADANA",
        "District": "ÇUKUROVA",
        "AddressText": "BEYAZEVLER MAHALLESI BÜLENT ANGIN BULVARI 8/A",
        "Latitude": 37.031401,
        "Longitude": 35.313907
    },
    {
        "CustomerId": 86,
        "VisitDuration": "00:30",
        "VisitFreq": 4,
        "MustVisitDays": null,
        "EligibilityBeginTime (hh:mm)": "08:30",
        "EligibilityEndTime (hh:mm)": "18:00",
        "Country": "Turkey",
        "City": "Tekirdağ",
        "District": "Malkara",
        "AddressText": "Camı Atık Mh.Sehıtlık Cd.No:32 Malkara / Tekırdag /Merkez/Tekırdag ",
        "Latitude": 40.891984,
        "Longitude": 26.903284
    },
    {
        "CustomerId": 87,
        "VisitDuration": "00:30",
        "VisitFreq": 4,
        "MustVisitDays": null,
        "EligibilityBeginTime (hh:mm)": "08:30",
        "EligibilityEndTime (hh:mm)": "18:00",
        "Country": "Turkey",
        "City": "Kastamonu",
        "District": "Kastamonu Merkez",
        "AddressText": "CEBRAIL MAHALLESI KIRKÇEŞME CADDESI CEBRAIL MAHALLESI NO:16  16",
        "Latitude": 41.377877,
        "Longitude": 33.779084
    },
    {
        "CustomerId": 88,
        "VisitDuration": "00:30",
        "VisitFreq": 4,
        "MustVisitDays": null,
        "EligibilityBeginTime (hh:mm)": "08:30",
        "EligibilityEndTime (hh:mm)": "18:00",
        "Country": "Turkey",
        "City": "Zonguldak",
        "District": "Zonguldak Merkez",
        "AddressText": "MEŞRUTIYET MAHALLESI UZUN MEHMET CADDESI MEŞRUTIYET MAHALLESI NO:15  15",
        "Latitude": 41.45363,
        "Longitude": 31.788514
    },
    {
        "CustomerId": 95,
        "VisitDuration": "00:30",
        "VisitFreq": 4,
        "MustVisitDays": null,
        "EligibilityBeginTime (hh:mm)": "08:30",
        "EligibilityEndTime (hh:mm)": "18:00",
        "Country": "Turkey",
        "City": "Van",
        "District": "Tusba",
        "AddressText": "Cumhurıyet Mah.No:251 Emnıyet Kant.Karsısı ",
        "Latitude": 38.487185,
        "Longitude": 43.366127
    },
    {
        "CustomerId": 96,
        "VisitDuration": "00:30",
        "VisitFreq": 4,
        "MustVisitDays": null,
        "EligibilityBeginTime (hh:mm)": "08:30",
        "EligibilityEndTime (hh:mm)": "18:00",
        "Country": "Turkey",
        "City": "BITLIS",
        "District": "TATVAN",
        "AddressText": "SAHIL MAHALLESI CUMHURIYET CADDESI  163",
        "Latitude": 38.4955446,
        "Longitude": 42.2863129
    },
    {
        "CustomerId": 97,
        "VisitDuration": "00:30",
        "VisitFreq": 1,
        "MustVisitDays": null,
        "EligibilityBeginTime (hh:mm)": "08:30",
        "EligibilityEndTime (hh:mm)": "18:00",
        "Country": "Turkey",
        "City": "MANISA",
        "District": "SARUHANLI",
        "AddressText": "ATATÜRK MAHALLESI 7 EYLÜL CADDESI ATATÜRK MAHALLESI NO:112  112",
        "Latitude": 38.7340767854,
        "Longitude": 27.5734249553
    },
    {
        "CustomerId": 98,
        "VisitDuration": "00:30",
        "VisitFreq": 4,
        "MustVisitDays": null,
        "EligibilityBeginTime (hh:mm)": "08:30",
        "EligibilityEndTime (hh:mm)": "18:00",
        "Country": "Turkey",
        "City": "MERSIN",
        "District": "TOROSLAR",
        "AddressText": "ÇAĞDAŞKENT MAHALLESI MIMAR SINAN BULVARI 134",
        "Latitude": 36.838632,
        "Longitude": 34.621339
    },
    {
        "CustomerId": 101,
        "VisitDuration": "00:30",
        "VisitFreq": 4,
        "MustVisitDays": null,
        "EligibilityBeginTime (hh:mm)": "08:30",
        "EligibilityEndTime (hh:mm)": "18:00",
        "Country": "Turkey",
        "City": "ESKIŞEHIR",
        "District": "ODUNPAZARI",
        "AddressText": "ÇANKAYA MAHALLESI HUZURLU SOKAK 11",
        "Latitude": 39.754589,
        "Longitude": 30.53481
    },
    {
        "CustomerId": 102,
        "VisitDuration": "00:30",
        "VisitFreq": 4,
        "MustVisitDays": null,
        "EligibilityBeginTime (hh:mm)": "08:30",
        "EligibilityEndTime (hh:mm)": "18:00",
        "Country": "Turkey",
        "City": "Bartın",
        "District": "Bartin Merkez",
        "AddressText": "GÖLBUCAĞI MAHALLESI ESKI HASTANE CADDESI GÖLBUCAĞI MAHALLESI NO:50/A  50/A",
        "Latitude": 41.627731,
        "Longitude": 32.329104
    },
    {
        "CustomerId": 111,
        "VisitDuration": "00:30",
        "VisitFreq": 4,
        "MustVisitDays": null,
        "EligibilityBeginTime (hh:mm)": "08:30",
        "EligibilityEndTime (hh:mm)": "18:00",
        "Country": "Turkey",
        "City": "MUŞ",
        "District": "MERKEZ",
        "AddressText": "MINARE MAHALLESI PTT CADDESI  2",
        "Latitude": 38.732655,
        "Longitude": 41.492441
    },
    {
        "CustomerId": 115,
        "VisitDuration": "00:30",
        "VisitFreq": 4,
        "MustVisitDays": null,
        "EligibilityBeginTime (hh:mm)": "08:30",
        "EligibilityEndTime (hh:mm)": "18:00",
        "Country": "Turkey",
        "City": "DIYARBAKIR",
        "District": "KAYAPINAR",
        "AddressText": "MEZOPOTAMYA MAHALLESI 606. SOKAK  1",
        "Latitude": 37.935672,
        "Longitude": 40.149432
    },
    {
        "CustomerId": 117,
        "VisitDuration": "00:30",
        "VisitFreq": 1,
        "MustVisitDays": null,
        "EligibilityBeginTime (hh:mm)": "08:30",
        "EligibilityEndTime (hh:mm)": "18:00",
        "Country": "Turkey",
        "City": "BATMAN",
        "District": "MERKEZ",
        "AddressText": "PINARBAŞI MAHALLESI OTOPARK  1",
        "Latitude": 37.896072,
        "Longitude": 41.129741
    },
    {
        "CustomerId": 119,
        "VisitDuration": "00:30",
        "VisitFreq": 4,
        "MustVisitDays": null,
        "EligibilityBeginTime (hh:mm)": "08:30",
        "EligibilityEndTime (hh:mm)": "18:00",
        "Country": "Turkey",
        "City": "ADANA",
        "District": "SEYHAN",
        "AddressText": "DÖŞEME MAHALLESI DR. ALI MENTEŞOĞLU CADDESI 1",
        "Latitude": 36.990281,
        "Longitude": 35.320858
    },
    {
        "CustomerId": 120,
        "VisitDuration": "00:30",
        "VisitFreq": 4,
        "MustVisitDays": null,
        "EligibilityBeginTime (hh:mm)": "08:30",
        "EligibilityEndTime (hh:mm)": "18:00",
        "Country": "Turkey",
        "City": "KAHRAMANMARAŞ",
        "District": "DULKADIROĞLU",
        "AddressText": "DULKADIROĞLU MAHALLESI TEVFIK KADIOĞLU BULVARI 108/A",
        "Latitude": 37.581069,
        "Longitude": 36.94561
    },
    {
        "CustomerId": 122,
        "VisitDuration": "00:30",
        "VisitFreq": 4,
        "MustVisitDays": null,
        "EligibilityBeginTime (hh:mm)": "08:30",
        "EligibilityEndTime (hh:mm)": "18:00",
        "Country": "Turkey",
        "City": "ERZURUM",
        "District": "PALANDÖKEN",
        "AddressText": "MÜFTÜ SOLAKZADE MAHALLESI ALVARLI MEHMET EFENDI CADDESI  12",
        "Latitude": 39.884759,
        "Longitude": 41.264235
    },
    {
        "CustomerId": 124,
        "VisitDuration": "00:30",
        "VisitFreq": 4,
        "MustVisitDays": null,
        "EligibilityBeginTime (hh:mm)": "08:30",
        "EligibilityEndTime (hh:mm)": "18:00",
        "Country": "Turkey",
        "City": "TRABZON",
        "District": "ORTAHISAR",
        "AddressText": "3 NOLU ERDOĞDU MAHALLESI SOĞUKSU CADDESI  247",
        "Latitude": 40.99469,
        "Longitude": 39.706028
    },
    {
        "CustomerId": 125,
        "VisitDuration": "00:30",
        "VisitFreq": 4,
        "MustVisitDays": null,
        "EligibilityBeginTime (hh:mm)": "08:30",
        "EligibilityEndTime (hh:mm)": "18:00",
        "Country": "Turkey",
        "City": "ORDU",
        "District": "ALTINORDU",
        "AddressText": "BAHÇELIEVLER MAHALLESI EROL ATAŞAN BULVARI  45299",
        "Latitude": 40.980997,
        "Longitude": 37.897521
    },
    {
        "CustomerId": 131,
        "VisitDuration": "00:30",
        "VisitFreq": 4,
        "MustVisitDays": null,
        "EligibilityBeginTime (hh:mm)": "08:30",
        "EligibilityEndTime (hh:mm)": "18:00",
        "Country": "Turkey",
        "City": "Kocaeli",
        "District": "Derince",
        "AddressText": "KURUÇEŞME FATIH MAHALLESI BARIŞ CADDESI KURUÇEŞME FATIH MAHALLESI NO:18/A  18/A",
        "Latitude": 40.765046,
        "Longitude": 29.873649
    },
    {
        "CustomerId": 136,
        "VisitDuration": "00:30",
        "VisitFreq": 1,
        "MustVisitDays": null,
        "EligibilityBeginTime (hh:mm)": "08:30",
        "EligibilityEndTime (hh:mm)": "18:00",
        "Country": "Turkey",
        "City": "MARDIN",
        "District": "KIZILTEPE",
        "AddressText": "İPEK MAHALLESI CEYLANPINAR CADDESI  139/A",
        "Latitude": 37.178497,
        "Longitude": 40.562054
    },
    {
        "CustomerId": 139,
        "VisitDuration": "00:30",
        "VisitFreq": 4,
        "MustVisitDays": null,
        "EligibilityBeginTime (hh:mm)": "08:30",
        "EligibilityEndTime (hh:mm)": "18:00",
        "Country": "Turkey",
        "City": "MERSIN",
        "District": "AKDENIZ",
        "AddressText": "TURGUTREIS MAHALLESI İSTIKLAL CADDESI 1",
        "Latitude": 36.794072,
        "Longitude": 34.613784
    },
    {
        "CustomerId": 140,
        "VisitDuration": "00:30",
        "VisitFreq": 4,
        "MustVisitDays": null,
        "EligibilityBeginTime (hh:mm)": "08:30",
        "EligibilityEndTime (hh:mm)": "18:00",
        "Country": "Turkey",
        "City": "ANTALYA",
        "District": "ALANYA",
        "AddressText": "GÜLLER PINARI MAHALLESI HACET CADDESI GÜLLER PINARI MAHALLESI NO:48/B  48/B",
        "Latitude": 36.548242,
        "Longitude": 32.006869
    },
    {
        "CustomerId": 144,
        "VisitDuration": "00:30",
        "VisitFreq": 4,
        "MustVisitDays": null,
        "EligibilityBeginTime (hh:mm)": "08:30",
        "EligibilityEndTime (hh:mm)": "18:00",
        "Country": "Turkey",
        "City": "ANKARA",
        "District": "YENIMAHALLE",
        "AddressText": "MACUN MAHALLESI 195. CADDESI 131/37 ",
        "Latitude": 39.946482,
        "Longitude": 32.766533
    },
    {
        "CustomerId": 152,
        "VisitDuration": "00:30",
        "VisitFreq": 4,
        "MustVisitDays": null,
        "EligibilityBeginTime (hh:mm)": "08:30",
        "EligibilityEndTime (hh:mm)": "18:00",
        "Country": "Turkey",
        "City": "Kocaeli",
        "District": "Körfez",
        "AddressText": "GÜNEY MAHALLESI TUĞRUL CADDESI GÜNEY MAHALLESI NO:24/A  24/A",
        "Latitude": 40.75935364,
        "Longitude": 29.78576851
    },
    {
        "CustomerId": 153,
        "VisitDuration": "00:30",
        "VisitFreq": 4,
        "MustVisitDays": null,
        "EligibilityBeginTime (hh:mm)": "08:30",
        "EligibilityEndTime (hh:mm)": "18:00",
        "Country": "Turkey",
        "City": "GAZIANTEP",
        "District": "ŞAHINBEY",
        "AddressText": "GÜNEYKENT MAHALLESI 102250. CADDESI 24",
        "Latitude": 37.028305,
        "Longitude": 37.321991
    },
    {
        "CustomerId": 166,
        "VisitDuration": "00:30",
        "VisitFreq": 1,
        "MustVisitDays": null,
        "EligibilityBeginTime (hh:mm)": "08:30",
        "EligibilityEndTime (hh:mm)": "18:00",
        "Country": "Turkey",
        "City": "BATMAN",
        "District": "MERKEZ",
        "AddressText": "HÜRRIYET MAHALLESI 27. CADDESI  28",
        "Latitude": 37.876204,
        "Longitude": 41.115827
    },
    {
        "CustomerId": 168,
        "VisitDuration": "00:30",
        "VisitFreq": 4,
        "MustVisitDays": null,
        "EligibilityBeginTime (hh:mm)": "08:30",
        "EligibilityEndTime (hh:mm)": "18:00",
        "Country": "Turkey",
        "City": "BILECIK",
        "District": "BOZÜYÜK",
        "AddressText": "YENI MAHALLESI İSMET İNÖNÜ CADDESI 116",
        "Latitude": 39.904669,
        "Longitude": 30.046718
    },
    {
        "CustomerId": 171,
        "VisitDuration": "00:30",
        "VisitFreq": 4,
        "MustVisitDays": null,
        "EligibilityBeginTime (hh:mm)": "08:30",
        "EligibilityEndTime (hh:mm)": "18:00",
        "Country": "Turkey",
        "City": "ŞANLIURFA",
        "District": "HALILIYE",
        "AddressText": "İMAM BAKIR MAHALLESI RECEP TAYYIP ERDOĞAN BULVARI 148/1",
        "Latitude": 37.16281,
        "Longitude": 38.819203
    },
    {
        "CustomerId": 175,
        "VisitDuration": "00:30",
        "VisitFreq": 1,
        "MustVisitDays": null,
        "EligibilityBeginTime (hh:mm)": "08:30",
        "EligibilityEndTime (hh:mm)": "18:00",
        "Country": "Turkey",
        "City": "MARDIN",
        "District": "KIZILTEPE",
        "AddressText": "İPEK MAHALLESI ŞEHITLIK CADDESI  75/A",
        "Latitude": 37.180443,
        "Longitude": 40.578413
    },
    {
        "CustomerId": 182,
        "VisitDuration": "00:30",
        "VisitFreq": 4,
        "MustVisitDays": null,
        "EligibilityBeginTime (hh:mm)": "08:30",
        "EligibilityEndTime (hh:mm)": "18:00",
        "Country": "Turkey",
        "City": "MUŞ",
        "District": "MERKEZ",
        "AddressText": "YEŞILYURT MAHALLESI İSTASYON CADDESI  20",
        "Latitude": 38.7467384338,
        "Longitude": 41.5015296936
    },
    {
        "CustomerId": 183,
        "VisitDuration": "00:30",
        "VisitFreq": 4,
        "MustVisitDays": null,
        "EligibilityBeginTime (hh:mm)": "08:30",
        "EligibilityEndTime (hh:mm)": "18:00",
        "Country": "Turkey",
        "City": "Zonguldak",
        "District": "Zonguldak Merkez",
        "AddressText": "KARAELMAS MAHALLESI İSTASYON CADDESI KARAELMAS MAHALLESI NO:9  9",
        "Latitude": 41.449504,
        "Longitude": 31.792418
    },
    {
        "CustomerId": 184,
        "VisitDuration": "00:30",
        "VisitFreq": 4,
        "MustVisitDays": null,
        "EligibilityBeginTime (hh:mm)": "08:30",
        "EligibilityEndTime (hh:mm)": "18:00",
        "Country": "Turkey",
        "City": "KAHRAMANMARAŞ",
        "District": "DULKADIROĞLU",
        "AddressText": "İSTASYON MAHALLESI GAZI MUSTAFA KEMAL BULVARI 59B",
        "Latitude": 37.55047,
        "Longitude": 36.921938
    },
    {
        "CustomerId": 185,
        "VisitDuration": "00:30",
        "VisitFreq": 4,
        "MustVisitDays": null,
        "EligibilityBeginTime (hh:mm)": "08:30",
        "EligibilityEndTime (hh:mm)": "18:00",
        "Country": "Turkey",
        "City": "Zonguldak",
        "District": "Çaycuma",
        "AddressText": "İSTASYON MAHALLESI KENAN AYDIN CADDESI İSTASYON MAHALLESI NO:22/A  22/A",
        "Latitude": 41.423323,
        "Longitude": 32.09407
    },
    {
        "CustomerId": 187,
        "VisitDuration": "00:30",
        "VisitFreq": 1,
        "MustVisitDays": null,
        "EligibilityBeginTime (hh:mm)": "08:30",
        "EligibilityEndTime (hh:mm)": "18:00",
        "Country": "Turkey",
        "City": "MANISA",
        "District": "TURGUTLU",
        "AddressText": "İSTIKLAL MAHALLESI CEVDET ÖKTEM CADDESI İSTIKLAL MAHALLESI NO:9  9",
        "Latitude": 38.499702,
        "Longitude": 27.710365
    },
    {
        "CustomerId": 188,
        "VisitDuration": "00:30",
        "VisitFreq": 1,
        "MustVisitDays": null,
        "EligibilityBeginTime (hh:mm)": "08:30",
        "EligibilityEndTime (hh:mm)": "18:00",
        "Country": "Turkey",
        "City": "İZMIR",
        "District": "TORBALI",
        "AddressText": "İNÖNÜ MAHALLESI İZMIR AYDIN CADDESI İNÖNÜ MAHALLESI NO:29/A  29/A",
        "Latitude": 38.2375683765,
        "Longitude": 27.2823934257
    },
    {
        "CustomerId": 195,
        "VisitDuration": "00:30",
        "VisitFreq": 4,
        "MustVisitDays": null,
        "EligibilityBeginTime (hh:mm)": "08:30",
        "EligibilityEndTime (hh:mm)": "18:00",
        "Country": "Turkey",
        "City": "ADANA",
        "District": "KOZAN",
        "AddressText": "KARACAOĞLAN MAHALLESI DEVELI BULVARI 7/A",
        "Latitude": 37.4641352054,
        "Longitude": 35.8082860429
    },
    {
        "CustomerId": 201,
        "VisitDuration": "00:30",
        "VisitFreq": 4,
        "MustVisitDays": null,
        "EligibilityBeginTime (hh:mm)": "08:30",
        "EligibilityEndTime (hh:mm)": "18:00",
        "Country": "Turkey",
        "City": "ADANA",
        "District": "YÜREĞIR",
        "AddressText": "HAYDAROĞLU MAHALLESI KARATAŞ BULVARI 128/A",
        "Latitude": 36.97056,
        "Longitude": 35.340894
    },
    {
        "CustomerId": 203,
        "VisitDuration": "00:30",
        "VisitFreq": 4,
        "MustVisitDays": null,
        "EligibilityBeginTime (hh:mm)": "08:30",
        "EligibilityEndTime (hh:mm)": "18:00",
        "Country": "Turkey",
        "City": "GAZIANTEP",
        "District": "ŞAHINBEY",
        "AddressText": "KARATAŞ MAHALLESI 103400. CADDESI 1",
        "Latitude": 37.0220146179,
        "Longitude": 37.339050293
    },
    {
        "CustomerId": 204,
        "VisitDuration": "00:30",
        "VisitFreq": 4,
        "MustVisitDays": null,
        "EligibilityBeginTime (hh:mm)": "08:30",
        "EligibilityEndTime (hh:mm)": "18:00",
        "Country": "Turkey",
        "City": "GAZIANTEP",
        "District": "ŞAHINBEY",
        "AddressText": "KARATAŞ MAHALLESI 400. CADDESI 13/B",
        "Latitude": 37.017393,
        "Longitude": 37.343186
    },
    {
        "CustomerId": 207,
        "VisitDuration": "00:30",
        "VisitFreq": 4,
        "MustVisitDays": null,
        "EligibilityBeginTime (hh:mm)": "08:30",
        "EligibilityEndTime (hh:mm)": "18:00",
        "Country": "Turkey",
        "City": "ŞANLIURFA",
        "District": "KARAKÖPRÜ",
        "AddressText": "MERKEZ MAHALLESI 401. CADDESI 5/B",
        "Latitude": 37.189689,
        "Longitude": 38.802186
    },
    {
        "CustomerId": 209,
        "VisitDuration": "00:30",
        "VisitFreq": 4,
        "MustVisitDays": null,
        "EligibilityBeginTime (hh:mm)": "08:30",
        "EligibilityEndTime (hh:mm)": "18:00",
        "Country": "Turkey",
        "City": "VAN",
        "District": "İPEKYOLU",
        "AddressText": "BAHÇIVAN MAHALLESI KAZIM KARABEKIR BULVARI  62",
        "Latitude": 38.499678,
        "Longitude": 43.386757
    },
    {
        "CustomerId": 214,
        "VisitDuration": "00:30",
        "VisitFreq": 4,
        "MustVisitDays": null,
        "EligibilityBeginTime (hh:mm)": "08:30",
        "EligibilityEndTime (hh:mm)": "18:00",
        "Country": "Turkey",
        "City": "VAN",
        "District": "ERCIŞ",
        "AddressText": "KIŞLA MAHALLESI KIŞLA BULVARI  39",
        "Latitude": 39.027459,
        "Longitude": 43.356224
    },
    {
        "CustomerId": 222,
        "VisitDuration": "00:30",
        "VisitFreq": 4,
        "MustVisitDays": null,
        "EligibilityBeginTime (hh:mm)": "08:30",
        "EligibilityEndTime (hh:mm)": "18:00",
        "Country": "Turkey",
        "City": "KAYSERI",
        "District": "MELIKGAZI",
        "AddressText": "KÖŞK MAHALLESI ŞHT. ÜTĞM. MUSTAFA ŞIMŞEK BULVARI  38/B",
        "Latitude": 38.7221328309,
        "Longitude": 35.5105895922
    },
    {
        "CustomerId": 226,
        "VisitDuration": "00:30",
        "VisitFreq": 4,
        "MustVisitDays": null,
        "EligibilityBeginTime (hh:mm)": "08:30",
        "EligibilityEndTime (hh:mm)": "18:00",
        "Country": "Turkey",
        "City": "OSMANIYE",
        "District": "DÜZIÇI",
        "AddressText": "İRFANIYE MAHALLESI ŞHT. AHMET METLIOĞLU CADDESI 275",
        "Latitude": 37.249736,
        "Longitude": 36.45822
    },
    {
        "CustomerId": 228,
        "VisitDuration": "00:30",
        "VisitFreq": 4,
        "MustVisitDays": null,
        "EligibilityBeginTime (hh:mm)": "08:30",
        "EligibilityEndTime (hh:mm)": "18:00",
        "Country": "Turkey",
        "City": "Kastamonu",
        "District": "Kastamonu Merkez",
        "AddressText": "KUZEYKENT MAHALLESI DEMIRCIOGLU CAD KUZEYKENT MAHALLESI NO:26/a  26/a",
        "Latitude": 41.429354,
        "Longitude": 33.783403
    },
    {
        "CustomerId": 230,
        "VisitDuration": "00:30",
        "VisitFreq": 4,
        "MustVisitDays": null,
        "EligibilityBeginTime (hh:mm)": "08:30",
        "EligibilityEndTime (hh:mm)": "18:00",
        "Country": "Turkey",
        "City": "BITLIS",
        "District": "TATVAN",
        "AddressText": "KÜLTÜR MAHALLESI VAN BITLIS YOLU  4",
        "Latitude": 38.5027885437,
        "Longitude": 42.2809906006
    },
    {
        "CustomerId": 232,
        "VisitDuration": "00:30",
        "VisitFreq": 1,
        "MustVisitDays": null,
        "EligibilityBeginTime (hh:mm)": "08:30",
        "EligibilityEndTime (hh:mm)": "18:00",
        "Country": "Turkey",
        "City": "BATMAN",
        "District": "MERKEZ",
        "AddressText": "KÜLTÜR MAHALLESI KIBRIS ŞEHITLER BULVARI  78/1",
        "Latitude": 37.902236,
        "Longitude": 41.119211
    },
    {
        "CustomerId": 233,
        "VisitDuration": "00:30",
        "VisitFreq": 4,
        "MustVisitDays": null,
        "EligibilityBeginTime (hh:mm)": "08:30",
        "EligibilityEndTime (hh:mm)": "18:00",
        "Country": "Turkey",
        "City": "ADANA",
        "District": "YÜREĞIR",
        "AddressText": "LEVENT MAHALLESI LEVENT CADDESI 151",
        "Latitude": 36.977609,
        "Longitude": 35.382847
    },
    {
        "CustomerId": 237,
        "VisitDuration": "00:30",
        "VisitFreq": 4,
        "MustVisitDays": null,
        "EligibilityBeginTime (hh:mm)": "08:30",
        "EligibilityEndTime (hh:mm)": "18:00",
        "Country": "Turkey",
        "City": "ANKARA",
        "District": "YENIMAHALLE",
        "AddressText": "MACUN MAH 204.CAD 18",
        "Latitude": 39.948553,
        "Longitude": 32.761524
    },
    {
        "CustomerId": 238,
        "VisitDuration": "00:30",
        "VisitFreq": 4,
        "MustVisitDays": null,
        "EligibilityBeginTime (hh:mm)": "08:30",
        "EligibilityEndTime (hh:mm)": "18:00",
        "Country": "Turkey",
        "City": "ANKARA",
        "District": "YENIMAHALLE",
        "AddressText": "MACUN MAHALLESI BAĞDAT CADDESI 101/1",
        "Latitude": 39.960891,
        "Longitude": 32.767514
    },
    {
        "CustomerId": 243,
        "VisitDuration": "00:30",
        "VisitFreq": 4,
        "MustVisitDays": null,
        "EligibilityBeginTime (hh:mm)": "08:30",
        "EligibilityEndTime (hh:mm)": "18:00",
        "Country": "Turkey",
        "City": "VAN",
        "District": "İPEKYOLU",
        "AddressText": "VALI MITHAT BEY MAHALLESI İSKELE CADDESI  10",
        "Latitude": 38.504663,
        "Longitude": 43.394973
    },
    {
        "CustomerId": 248,
        "VisitDuration": "00:30",
        "VisitFreq": 4,
        "MustVisitDays": null,
        "EligibilityBeginTime (hh:mm)": "08:30",
        "EligibilityEndTime (hh:mm)": "18:00",
        "Country": "Turkey",
        "City": "MERSIN",
        "District": "TARSUS",
        "AddressText": "ERGENEKON MAHALLESI FATIH SULTAN MEHMET BULVARI 31",
        "Latitude": 36.929476,
        "Longitude": 34.863841
    },
    {
        "CustomerId": 251,
        "VisitDuration": "00:30",
        "VisitFreq": 4,
        "MustVisitDays": null,
        "EligibilityBeginTime (hh:mm)": "08:30",
        "EligibilityEndTime (hh:mm)": "18:00",
        "Country": "Turkey",
        "City": "Kocaeli",
        "District": "Gölcük",
        "AddressText": "Merkez Mah.Atatürk Cad.No 33 Degırmendere ",
        "Latitude": 40.718614,
        "Longitude": 29.782565
    },
    {
        "CustomerId": 253,
        "VisitDuration": "00:30",
        "VisitFreq": 4,
        "MustVisitDays": null,
        "EligibilityBeginTime (hh:mm)": "08:30",
        "EligibilityEndTime (hh:mm)": "18:00",
        "Country": "Turkey",
        "City": "DIYARBAKIR",
        "District": "KAYAPINAR",
        "AddressText": "FIRAT MAHALLESI MEZOPOTAMYA BULVARI  1",
        "Latitude": 37.927989,
        "Longitude": 40.133852
    },
    {
        "CustomerId": 260,
        "VisitDuration": "00:30",
        "VisitFreq": 4,
        "MustVisitDays": null,
        "EligibilityBeginTime (hh:mm)": "08:30",
        "EligibilityEndTime (hh:mm)": "18:00",
        "Country": "Turkey",
        "City": "Zonguldak",
        "District": "Eregli / Zonguldak",
        "AddressText": "MÜFTÜ MAHALLESI UZUNKUM CADDESI MÜFTÜ MAHALLESI NO:13  13",
        "Latitude": 41.274386,
        "Longitude": 31.4261
    },
    {
        "CustomerId": 267,
        "VisitDuration": "00:30",
        "VisitFreq": 4,
        "MustVisitDays": null,
        "EligibilityBeginTime (hh:mm)": "08:30",
        "EligibilityEndTime (hh:mm)": "18:00",
        "Country": "Turkey",
        "City": "VAN",
        "District": "İPEKYOLU",
        "AddressText": "ŞEREFIYE MAHALLESI ORDU CADDESI  40",
        "Latitude": 38.500058,
        "Longitude": 43.399548
    },
    {
        "CustomerId": 269,
        "VisitDuration": "00:30",
        "VisitFreq": 4,
        "MustVisitDays": null,
        "EligibilityBeginTime (hh:mm)": "08:30",
        "EligibilityEndTime (hh:mm)": "18:00",
        "Country": "Turkey",
        "City": "AFYONKARAHISAR",
        "District": "MERKEZ",
        "AddressText": "AFYONKARAHISAR OSB 4. CADDE 3. SOKAK 2",
        "Latitude": 38.755306,
        "Longitude": 30.546326
    },
    {
        "CustomerId": 274,
        "VisitDuration": "00:30",
        "VisitFreq": 4,
        "MustVisitDays": null,
        "EligibilityBeginTime (hh:mm)": "08:30",
        "EligibilityEndTime (hh:mm)": "18:00",
        "Country": "Turkey",
        "City": "ERZURUM",
        "District": "YAKUTIYE",
        "AddressText": "KURTULUŞ MAHALLESI TORTUM YOLU CADDESI  194",
        "Latitude": 39.951623,
        "Longitude": 41.293424
    },
    {
        "CustomerId": 277,
        "VisitDuration": "00:30",
        "VisitFreq": 4,
        "MustVisitDays": null,
        "EligibilityBeginTime (hh:mm)": "08:30",
        "EligibilityEndTime (hh:mm)": "18:00",
        "Country": "Turkey",
        "City": "BURDUR",
        "District": "MERKEZ",
        "AddressText": "ÖZGÜR MAHALLESI NAMAZGAH SOKAK ÖZGÜR MAHALLESI NO:4/A  4/A",
        "Latitude": 37.721388,
        "Longitude": 30.28714
    },
    {
        "CustomerId": 278,
        "VisitDuration": "00:30",
        "VisitFreq": 4,
        "MustVisitDays": null,
        "EligibilityBeginTime (hh:mm)": "08:30",
        "EligibilityEndTime (hh:mm)": "18:00",
        "Country": "Turkey",
        "City": "ŞANLIURFA",
        "District": "HALILIYE",
        "AddressText": "PAŞABAĞI MAHALLESI MEVLANA CADDESI 72",
        "Latitude": 37.158719,
        "Longitude": 38.813151
    },
    {
        "CustomerId": 280,
        "VisitDuration": "00:30",
        "VisitFreq": 4,
        "MustVisitDays": null,
        "EligibilityBeginTime (hh:mm)": "08:30",
        "EligibilityEndTime (hh:mm)": "18:00",
        "Country": "Turkey",
        "City": "Zonguldak",
        "District": "Alapli",
        "AddressText": "MERKEZ MAHALLESI HÜKÜMET CADDESI MERKEZ MAHALLESI NO:17  17",
        "Latitude": 41.179919,
        "Longitude": 31.38649
    },
    {
        "CustomerId": 281,
        "VisitDuration": "00:30",
        "VisitFreq": 1,
        "MustVisitDays": null,
        "EligibilityBeginTime (hh:mm)": "08:30",
        "EligibilityEndTime (hh:mm)": "18:00",
        "Country": "Turkey",
        "City": "ADANA",
        "District": "SEYHAN",
        "AddressText": "GÜRSELPAŞA MAHALLESI ALI BOZDOĞANOĞLU BULVARI 27",
        "Latitude": 37.026612,
        "Longitude": 35.276536
    },
    {
        "CustomerId": 284,
        "VisitDuration": "00:30",
        "VisitFreq": 4,
        "MustVisitDays": null,
        "EligibilityBeginTime (hh:mm)": "08:30",
        "EligibilityEndTime (hh:mm)": "18:00",
        "Country": "Turkey",
        "City": "RIZE",
        "District": "MERKEZ",
        "AddressText": "PORTAKALLIK MAHALLESI MENDERES BULVARI  420/A",
        "Latitude": 41.0309829712,
        "Longitude": 40.5537986755
    },
    {
        "CustomerId": 292,
        "VisitDuration": "00:30",
        "VisitFreq": 4,
        "MustVisitDays": null,
        "EligibilityBeginTime (hh:mm)": "08:30",
        "EligibilityEndTime (hh:mm)": "18:00",
        "Country": "Turkey",
        "City": "GAZIANTEP",
        "District": "ŞAHINBEY",
        "AddressText": "ONUR MAHALLESI 45. CADDESI 5",
        "Latitude": 37.047029,
        "Longitude": 37.36377
    },
    {
        "CustomerId": 295,
        "VisitDuration": "00:30",
        "VisitFreq": 4,
        "MustVisitDays": null,
        "EligibilityBeginTime (hh:mm)": "08:30",
        "EligibilityEndTime (hh:mm)": "18:00",
        "Country": "Turkey",
        "City": "ESKIŞEHIR",
        "District": "TEPEBAŞI",
        "AddressText": "BAHÇELIEVLER MAHALLESI SAKARYA-2 CADDESI 101",
        "Latitude": 39.786143,
        "Longitude": 30.519127
    },
    {
        "CustomerId": 300,
        "VisitDuration": "00:30",
        "VisitFreq": 4,
        "MustVisitDays": null,
        "EligibilityBeginTime (hh:mm)": "08:30",
        "EligibilityEndTime (hh:mm)": "18:00",
        "Country": "Turkey",
        "City": "İstanbul",
        "District": "Bağcılar",
        "AddressText": "Sancaktepe Mah. Fatıh Cad. No:135 ",
        "Latitude": 41.040311,
        "Longitude": 28.857828
    },
    {
        "CustomerId": 307,
        "VisitDuration": "00:30",
        "VisitFreq": 4,
        "MustVisitDays": null,
        "EligibilityBeginTime (hh:mm)": "08:30",
        "EligibilityEndTime (hh:mm)": "18:00",
        "Country": "Turkey",
        "City": "KARAMAN",
        "District": "MERKEZ",
        "AddressText": "İMARET MAHALLESI ATATÜRK BULVARI İMARET MAHALLESI NO:2  2",
        "Latitude": 37.181286,
        "Longitude": 33.220648
    },
    {
        "CustomerId": 309,
        "VisitDuration": "00:30",
        "VisitFreq": 4,
        "MustVisitDays": null,
        "EligibilityBeginTime (hh:mm)": "08:30",
        "EligibilityEndTime (hh:mm)": "18:00",
        "Country": "Turkey",
        "City": "Sakarya",
        "District": "Adapazarı",
        "AddressText": "SEMERCILER MAHALLESI KUDÜS CADDESI SEMERCILER MAHALLESI NO:50  50",
        "Latitude": 40.773856,
        "Longitude": 30.395526
    },
    {
        "CustomerId": 310,
        "VisitDuration": "00:30",
        "VisitFreq": 4,
        "MustVisitDays": null,
        "EligibilityBeginTime (hh:mm)": "08:30",
        "EligibilityEndTime (hh:mm)": "18:00",
        "Country": "Turkey",
        "City": "VAN",
        "District": "İPEKYOLU",
        "AddressText": "ŞEREFIYE MAHALLESI CUMHURIYET BULVARI  89/C",
        "Latitude": 38.496822,
        "Longitude": 43.394726
    },
    {
        "CustomerId": 311,
        "VisitDuration": "00:30",
        "VisitFreq": 1,
        "MustVisitDays": null,
        "EligibilityBeginTime (hh:mm)": "08:30",
        "EligibilityEndTime (hh:mm)": "18:00",
        "Country": "Turkey",
        "City": "MANISA",
        "District": "ŞEHZADELER",
        "AddressText": "Şehzadeler SEYFETTIN BEY CADESI Şehzadeler NO:1  1",
        "Latitude": 38.6138982249,
        "Longitude": 27.4355728207
    },
    {
        "CustomerId": 315,
        "VisitDuration": "00:30",
        "VisitFreq": 4,
        "MustVisitDays": null,
        "EligibilityBeginTime (hh:mm)": "08:30",
        "EligibilityEndTime (hh:mm)": "18:00",
        "Country": "Turkey",
        "City": "SAMSUN",
        "District": "ATAKUM",
        "AddressText": "ESENEVLER MAHALLESI 404.SOKAK  45295",
        "Latitude": 41.26359,
        "Longitude": 36.350327
    },
    {
        "CustomerId": 319,
        "VisitDuration": "00:30",
        "VisitFreq": 4,
        "MustVisitDays": null,
        "EligibilityBeginTime (hh:mm)": "08:30",
        "EligibilityEndTime (hh:mm)": "18:00",
        "Country": "Turkey",
        "City": "ŞANLIURFA",
        "District": "HALILIYE",
        "AddressText": "SANCAKTAR MAHALLESI ŞÜTIM ŞIRECILER PAZARI 1",
        "Latitude": 37.15599823,
        "Longitude": 38.8107376099
    },
    {
        "CustomerId": 320,
        "VisitDuration": "00:30",
        "VisitFreq": 4,
        "MustVisitDays": null,
        "EligibilityBeginTime (hh:mm)": "08:30",
        "EligibilityEndTime (hh:mm)": "18:00",
        "Country": "Turkey",
        "City": "ŞANLIURFA",
        "District": "HALILIYE",
        "AddressText": "PAŞABAĞI MAHALLESI MEVLANA CADDESI 1",
        "Latitude": 37.1552810669,
        "Longitude": 38.8098144531
    },
    {
        "CustomerId": 321,
        "VisitDuration": "00:30",
        "VisitFreq": 4,
        "MustVisitDays": null,
        "EligibilityBeginTime (hh:mm)": "08:30",
        "EligibilityEndTime (hh:mm)": "18:00",
        "Country": "Turkey",
        "City": "ISPARTA",
        "District": "MERKEZ",
        "AddressText": "FATIH MAHALLESI 156 CADDESI FATIH MAHALLESI NO:45506  45506",
        "Latitude": 37.783135,
        "Longitude": 30.545249
    },
    {
        "CustomerId": 325,
        "VisitDuration": "00:30",
        "VisitFreq": 4,
        "MustVisitDays": null,
        "EligibilityBeginTime (hh:mm)": "08:30",
        "EligibilityEndTime (hh:mm)": "18:00",
        "Country": "Turkey",
        "City": "VAN",
        "District": "EDREMIT",
        "AddressText": "SÜPHAN MAH  NAZIM ÜSTÜNOVA SK VANGÖLÜ TO.SIT.H1 BLOK   164",
        "Latitude": 38.4919662476,
        "Longitude": 43.4104957581
    },
    {
        "CustomerId": 330,
        "VisitDuration": "00:30",
        "VisitFreq": 4,
        "MustVisitDays": null,
        "EligibilityBeginTime (hh:mm)": "08:30",
        "EligibilityEndTime (hh:mm)": "18:00",
        "Country": "Turkey",
        "City": "ADANA",
        "District": "YÜREĞIR",
        "AddressText": "TAHSILLI MAHALLESI KOZAN CADDESI 327/A",
        "Latitude": 37.000132,
        "Longitude": 35.363662
    },
    {
        "CustomerId": 331,
        "VisitDuration": "00:30",
        "VisitFreq": 4,
        "MustVisitDays": null,
        "EligibilityBeginTime (hh:mm)": "08:30",
        "EligibilityEndTime (hh:mm)": "18:00",
        "Country": "Turkey",
        "City": "KARAMAN",
        "District": "MERKEZ",
        "AddressText": "TAHSIN ÜNAL MAHALLESI YUNUS EMRE CADDESI TAHSIN ÜNAL MAHALLESI NO:14  14",
        "Latitude": 37.182395,
        "Longitude": 33.219416
    },
    {
        "CustomerId": 332,
        "VisitDuration": "00:30",
        "VisitFreq": 4,
        "MustVisitDays": null,
        "EligibilityBeginTime (hh:mm)": "08:30",
        "EligibilityEndTime (hh:mm)": "18:00",
        "Country": "Turkey",
        "City": "BITLIS",
        "District": "MERKEZ",
        "AddressText": "TAŞ MAHALLESI RECEP AĞA SOKAK  4",
        "Latitude": 38.423022,
        "Longitude": 42.124829
    },
    {
        "CustomerId": 334,
        "VisitDuration": "00:30",
        "VisitFreq": 1,
        "MustVisitDays": null,
        "EligibilityBeginTime (hh:mm)": "08:30",
        "EligibilityEndTime (hh:mm)": "18:00",
        "Country": "Turkey",
        "City": "MARDIN",
        "District": "KIZILTEPE",
        "AddressText": "TEPEBAŞI MAHALLESI 608. SOKAK  13/A",
        "Latitude": 37.189502,
        "Longitude": 40.586983
    },
    {
        "CustomerId": 337,
        "VisitDuration": "00:30",
        "VisitFreq": 4,
        "MustVisitDays": null,
        "EligibilityBeginTime (hh:mm)": "08:30",
        "EligibilityEndTime (hh:mm)": "18:00",
        "Country": "Turkey",
        "City": "DIYARBAKIR",
        "District": "KAYAPINAR",
        "AddressText": "ORKÖY MAH URFA YOLU ORKÖY KAVŞAĞI ÜZERI  1",
        "Latitude": 37.928469,
        "Longitude": 40.174462
    },
    {
        "CustomerId": 340,
        "VisitDuration": "00:30",
        "VisitFreq": 4,
        "MustVisitDays": null,
        "EligibilityBeginTime (hh:mm)": "08:30",
        "EligibilityEndTime (hh:mm)": "18:00",
        "Country": "Turkey",
        "City": "ADANA",
        "District": "SEYHAN",
        "AddressText": "YEŞILYURT MAHALLESI AHMET SAPMAZ BULVARI 40/A",
        "Latitude": 37.0318011273,
        "Longitude": 35.2994932944
    },
    {
        "CustomerId": 341,
        "VisitDuration": "00:30",
        "VisitFreq": 4,
        "MustVisitDays": null,
        "EligibilityBeginTime (hh:mm)": "08:30",
        "EligibilityEndTime (hh:mm)": "18:00",
        "Country": "Turkey",
        "City": "MERSIN",
        "District": "TOROSLAR",
        "AddressText": "TOZKOPARAN MAHALLESI 207. CADDESI 147",
        "Latitude": 36.820948,
        "Longitude": 34.616616
    },
    {
        "CustomerId": 343,
        "VisitDuration": "00:30",
        "VisitFreq": 4,
        "MustVisitDays": null,
        "EligibilityBeginTime (hh:mm)": "08:30",
        "EligibilityEndTime (hh:mm)": "18:00",
        "Country": "Turkey",
        "City": "ADANA",
        "District": "SEYHAN",
        "AddressText": "UÇAK MAHALLESI ŞAKIRPAŞA CADDESI 101/A",
        "Latitude": 36.987505,
        "Longitude": 35.277282
    },
    {
        "CustomerId": 354,
        "VisitDuration": "00:30",
        "VisitFreq": 4,
        "MustVisitDays": null,
        "EligibilityBeginTime (hh:mm)": "08:30",
        "EligibilityEndTime (hh:mm)": "18:00",
        "Country": "Turkey",
        "City": "GIRESUN",
        "District": "BULANCAK",
        "AddressText": "İHSANIYE MAHALLESI UĞUR MUMCU CADDESI  14/B",
        "Latitude": 40.938226,
        "Longitude": 38.229974
    },
    {
        "CustomerId": 355,
        "VisitDuration": "00:30",
        "VisitFreq": 4,
        "MustVisitDays": null,
        "EligibilityBeginTime (hh:mm)": "08:30",
        "EligibilityEndTime (hh:mm)": "18:00",
        "Country": "Turkey",
        "City": "KONYA",
        "District": "SELÇUKLU",
        "AddressText": "FERITPAŞA MAHALLESI ADNAN MENDERES CADDESI FERITPAŞA MAHALLESI NO:21  21",
        "Latitude": 37.972716,
        "Longitude": 32.509169
    },
    {
        "CustomerId": 356,
        "VisitDuration": "00:30",
        "VisitFreq": 4,
        "MustVisitDays": null,
        "EligibilityBeginTime (hh:mm)": "08:30",
        "EligibilityEndTime (hh:mm)": "18:00",
        "Country": "Turkey",
        "City": "ISPARTA",
        "District": "MERKEZ",
        "AddressText": "YEDIŞEHITLER MAHALLESI GÖLCÜK CADDESI YEDIŞEHITLER MAHALLESI NO:106  106",
        "Latitude": 37.769996,
        "Longitude": 30.540994
    },
    {
        "CustomerId": 357,
        "VisitDuration": "00:30",
        "VisitFreq": 4,
        "MustVisitDays": null,
        "EligibilityBeginTime (hh:mm)": "08:30",
        "EligibilityEndTime (hh:mm)": "18:00",
        "Country": "Turkey",
        "City": "Zonguldak",
        "District": "Merkez",
        "AddressText": "MITHATPAŞA MAHALLESI ANKARA CADDESI MITHATPAŞA MAHALLESI NO:10  10",
        "Latitude": 41.451322,
        "Longitude": 31.79085
    },
    {
        "CustomerId": 358,
        "VisitDuration": "00:30",
        "VisitFreq": 4,
        "MustVisitDays": null,
        "EligibilityBeginTime (hh:mm)": "08:30",
        "EligibilityEndTime (hh:mm)": "18:00",
        "Country": "Turkey",
        "City": "ŞANLIURFA",
        "District": "VIRANŞEHIR",
        "AddressText": "YENIŞEHIR MAHALLESI 3. CADDESI 8",
        "Latitude": 37.2253913879,
        "Longitude": 39.7539024353
    },
    {
        "CustomerId": 360,
        "VisitDuration": "00:30",
        "VisitFreq": 1,
        "MustVisitDays": null,
        "EligibilityBeginTime (hh:mm)": "08:30",
        "EligibilityEndTime (hh:mm)": "18:00",
        "Country": "Turkey",
        "City": "BATMAN",
        "District": "MERKEZ",
        "AddressText": "YENI MAHALLESI 16 CADDESI  12",
        "Latitude": 37.911026,
        "Longitude": 41.133698
    },
    {
        "CustomerId": 361,
        "VisitDuration": "00:30",
        "VisitFreq": 4,
        "MustVisitDays": null,
        "EligibilityBeginTime (hh:mm)": "08:30",
        "EligibilityEndTime (hh:mm)": "18:00",
        "Country": "Turkey",
        "City": "Sakarya",
        "District": "Hendek",
        "AddressText": "BAŞPINAR MAHALLESI BEŞTEPELER CADDESI BAŞPINAR MAHALLESI NO:1  1",
        "Latitude": 40.793706,
        "Longitude": 30.736064
    },
    {
        "CustomerId": 363,
        "VisitDuration": "00:30",
        "VisitFreq": 4,
        "MustVisitDays": null,
        "EligibilityBeginTime (hh:mm)": "08:30",
        "EligibilityEndTime (hh:mm)": "18:00",
        "Country": "Turkey",
        "City": "ADANA",
        "District": "SEYHAN",
        "AddressText": "YENIBEY MAHALLESI ÜMMÜ GÜLSÜM CAMI SOKAK 57",
        "Latitude": 36.968168,
        "Longitude": 35.325034
    },
    {
        "CustomerId": 364,
        "VisitDuration": "00:30",
        "VisitFreq": 4,
        "MustVisitDays": null,
        "EligibilityBeginTime (hh:mm)": "08:30",
        "EligibilityEndTime (hh:mm)": "18:00",
        "Country": "Turkey",
        "City": "Sakarya",
        "District": "Serdivan",
        "AddressText": "İSTIKLAL MAHALLESI ŞEHIT MEHMET KARABAŞOĞLU CADDESI  İSTIKLAL MAHALLESI NO:2/A  2/A",
        "Latitude": 40.77175,
        "Longitude": 30.362249
    },
    {
        "CustomerId": 366,
        "VisitDuration": "00:30",
        "VisitFreq": 1,
        "MustVisitDays": null,
        "EligibilityBeginTime (hh:mm)": "08:30",
        "EligibilityEndTime (hh:mm)": "18:00",
        "Country": "Turkey",
        "City": "MARDIN",
        "District": "ARTUKLU",
        "AddressText": "YENIŞEHIR MAHALLESI ERENLER CADDESI  31",
        "Latitude": 37.320968,
        "Longitude": 40.720924
    },
    {
        "CustomerId": 367,
        "VisitDuration": "00:30",
        "VisitFreq": 4,
        "MustVisitDays": null,
        "EligibilityBeginTime (hh:mm)": "08:30",
        "EligibilityEndTime (hh:mm)": "18:00",
        "Country": "Turkey",
        "City": "Kocaeli",
        "District": "Derince",
        "AddressText": "YENIKENT MAHALLESI GAZI MUSTAFA PAŞA CADDESI YENIKENT MAHALLESI NO:15  15",
        "Latitude": 40.771727,
        "Longitude": 29.810549
    },
    {
        "CustomerId": 369,
        "VisitDuration": "00:30",
        "VisitFreq": 1,
        "MustVisitDays": null,
        "EligibilityBeginTime (hh:mm)": "08:30",
        "EligibilityEndTime (hh:mm)": "18:00",
        "Country": "Turkey",
        "City": "MARDIN",
        "District": "KIZILTEPE",
        "AddressText": "YENİKENT MH MARDIN CADDESI  331/Z-5",
        "Latitude": 37.2313194275,
        "Longitude": 40.6310844421
    },
    {
        "CustomerId": 380,
        "VisitDuration": "00:30",
        "VisitFreq": 4,
        "MustVisitDays": null,
        "EligibilityBeginTime (hh:mm)": "08:30",
        "EligibilityEndTime (hh:mm)": "18:00",
        "Country": "Turkey",
        "City": "MUŞ",
        "District": "MERKEZ",
        "AddressText": "ZAFER MAHALLESI İSTASYON CADDESI  9/A",
        "Latitude": 38.752121,
        "Longitude": 41.505166
    },
    {
        "CustomerId": 389,
        "VisitDuration": "00:30",
        "VisitFreq": 4,
        "MustVisitDays": null,
        "EligibilityBeginTime (hh:mm)": "08:30",
        "EligibilityEndTime (hh:mm)": "18:00",
        "Country": "Turkey",
        "City": "Kocaeli",
        "District": "İzmit",
        "AddressText": "28 HAZIRAN MAHALLESI TURAN GÜNEŞ CADDESI 28 HAZIRAN MAHALLESI NO:293/A  293/A",
        "Latitude": 40.77272972,
        "Longitude": 29.95217903
    },
    {
        "CustomerId": 394,
        "VisitDuration": "00:30",
        "VisitFreq": 1,
        "MustVisitDays": null,
        "EligibilityBeginTime (hh:mm)": "08:30",
        "EligibilityEndTime (hh:mm)": "18:00",
        "Country": "Turkey",
        "City": "Balıkesir",
        "District": "Bandırma",
        "AddressText": "600 EVLER MAHALLESI 1346. SOKAK 600 EVLER MAHALLESI NO:1  1",
        "Latitude": 40.324702,
        "Longitude": 28.004052
    },
    {
        "CustomerId": 396,
        "VisitDuration": "00:30",
        "VisitFreq": 4,
        "MustVisitDays": null,
        "EligibilityBeginTime (hh:mm)": "08:30",
        "EligibilityEndTime (hh:mm)": "18:00",
        "Country": "Turkey",
        "City": "DIYARBAKIR",
        "District": "BAĞLAR",
        "AddressText": "ALIPINAR MAHALLESI 22. SOKAK  1",
        "Latitude": 37.9088341,
        "Longitude": 40.2103633
    },
    {
        "CustomerId": 398,
        "VisitDuration": "00:30",
        "VisitFreq": 4,
        "MustVisitDays": null,
        "EligibilityBeginTime (hh:mm)": "08:30",
        "EligibilityEndTime (hh:mm)": "18:00",
        "Country": "Turkey",
        "City": "ERZURUM",
        "District": "YAKUTIYE",
        "AddressText": "ÖMER NASUHI BILMEN MAHALLESI ORHAN GAZI CADDESI  2",
        "Latitude": 39.94818,
        "Longitude": 41.300217
    },
    {
        "CustomerId": 400,
        "VisitDuration": "00:30",
        "VisitFreq": 4,
        "MustVisitDays": null,
        "EligibilityBeginTime (hh:mm)": "08:30",
        "EligibilityEndTime (hh:mm)": "18:00",
        "Country": "Turkey",
        "City": "Kocaeli",
        "District": "Kartepe",
        "AddressText": "FATIH SULTAN MEHMET MAHALLESI SAPANCA YOLU CADDESI FATIH SULTAN MEHMET MAHALLESI NO:456/A  456/A",
        "Latitude": 40.71736,
        "Longitude": 30.115792
    },
    {
        "CustomerId": 405,
        "VisitDuration": "00:30",
        "VisitFreq": 4,
        "MustVisitDays": null,
        "EligibilityBeginTime (hh:mm)": "08:30",
        "EligibilityEndTime (hh:mm)": "18:00",
        "Country": "Turkey",
        "City": "YOZGAT",
        "District": "SORGUN",
        "AddressText": "AHMETEFENDI MAHALLESI 3001. SOKAK  1",
        "Latitude": 39.8133853,
        "Longitude": 35.1778516
    },
    {
        "CustomerId": 422,
        "VisitDuration": "00:30",
        "VisitFreq": 4,
        "MustVisitDays": null,
        "EligibilityBeginTime (hh:mm)": "08:30",
        "EligibilityEndTime (hh:mm)": "18:00",
        "Country": "Turkey",
        "City": "Kocaeli",
        "District": "Gölcük",
        "AddressText": "ÖMERAĞA MAHALLESI ABDURRAHMAN YÜKSEL CADDESI ÖMERAĞA MAHALLESI NO:52  52",
        "Latitude": 40.765316,
        "Longitude": 29.928847
    },
    {
        "CustomerId": 423,
        "VisitDuration": "00:30",
        "VisitFreq": 4,
        "MustVisitDays": null,
        "EligibilityBeginTime (hh:mm)": "08:30",
        "EligibilityEndTime (hh:mm)": "18:00",
        "Country": "Turkey",
        "City": "Kocaeli",
        "District": "İzmit",
        "AddressText": "ALIKAHYA MERKEZ MAHALLESI SAKIP SABANCI BULVARI ALIKAHYA MERKEZ MAHALLESI NO:4/D  4/D",
        "Latitude": 40.77073754,
        "Longitude": 30.00446201
    },
    {
        "CustomerId": 425,
        "VisitDuration": "00:30",
        "VisitFreq": 4,
        "MustVisitDays": null,
        "EligibilityBeginTime (hh:mm)": "08:30",
        "EligibilityEndTime (hh:mm)": "18:00",
        "Country": "Turkey",
        "City": "VAN",
        "District": "TUŞBA",
        "AddressText": "ALTINTEPE MAHALLESI İSKELE CADDESI  1",
        "Latitude": 38.50175,
        "Longitude": 43.382843
    },
    {
        "CustomerId": 426,
        "VisitDuration": "00:30",
        "VisitFreq": 4,
        "MustVisitDays": null,
        "EligibilityBeginTime (hh:mm)": "08:30",
        "EligibilityEndTime (hh:mm)": "18:00",
        "Country": "Turkey",
        "City": "İstanbul",
        "District": "Arnavutköy",
        "AddressText": "Anadolu Mah. M.Sınan Cad. No:69 ",
        "Latitude": 41.188235,
        "Longitude": 28.748995
    },
    {
        "CustomerId": 432,
        "VisitDuration": "00:30",
        "VisitFreq": 4,
        "MustVisitDays": null,
        "EligibilityBeginTime (hh:mm)": "08:30",
        "EligibilityEndTime (hh:mm)": "18:00",
        "Country": "Turkey",
        "City": "ERZINCAN",
        "District": "MERKEZ",
        "AddressText": "ARSLANLI MAHALLESI MILLI EGEMENLIK BULVARI  23",
        "Latitude": 39.759787,
        "Longitude": 39.482887
    },
    {
        "CustomerId": 437,
        "VisitDuration": "00:30",
        "VisitFreq": 4,
        "MustVisitDays": null,
        "EligibilityBeginTime (hh:mm)": "08:30",
        "EligibilityEndTime (hh:mm)": "18:00",
        "Country": "Turkey",
        "City": "Kocaeli",
        "District": "Kartepe",
        "AddressText": "ATAEVLER MAHALLESI İSMET PAŞA CADDESI ATAEVLER MAHALLESI NO:45320  45320",
        "Latitude": 40.741354,
        "Longitude": 30.047115
    },
    {
        "CustomerId": 438,
        "VisitDuration": "00:30",
        "VisitFreq": 4,
        "MustVisitDays": null,
        "EligibilityBeginTime (hh:mm)": "08:30",
        "EligibilityEndTime (hh:mm)": "18:00",
        "Country": "Turkey",
        "City": "Kocaeli",
        "District": "Kartepe",
        "AddressText": "ÇAMLIK MAHALLESI SAPANCA YOLU CADDESI ÇAMLIK MAHALLESI NO:66/A  66/A",
        "Latitude": 40.739999,
        "Longitude": 30.051719
    },
    {
        "CustomerId": 441,
        "VisitDuration": "00:30",
        "VisitFreq": 4,
        "MustVisitDays": null,
        "EligibilityBeginTime (hh:mm)": "08:30",
        "EligibilityEndTime (hh:mm)": "18:00",
        "Country": "Turkey",
        "City": "KAYSERI",
        "District": "KOCASINAN",
        "AddressText": "GEVHERNESIBE MAHALLESI ATATÜRK BULVARI  8/A",
        "Latitude": 38.721534,
        "Longitude": 35.482472
    },
    {
        "CustomerId": 442,
        "VisitDuration": "00:30",
        "VisitFreq": 4,
        "MustVisitDays": null,
        "EligibilityBeginTime (hh:mm)": "08:30",
        "EligibilityEndTime (hh:mm)": "18:00",
        "Country": "Turkey",
        "City": "KAYSERI",
        "District": "KOCASINAN",
        "AddressText": "GEVHERNESIBE MAHALLESI ATATÜRK BULVARI  6",
        "Latitude": 38.721207,
        "Longitude": 35.482464
    },
    {
        "CustomerId": 451,
        "VisitDuration": "00:30",
        "VisitFreq": 4,
        "MustVisitDays": null,
        "EligibilityBeginTime (hh:mm)": "08:30",
        "EligibilityEndTime (hh:mm)": "18:00",
        "Country": "Turkey",
        "City": "KONYA",
        "District": "SELÇUKLU",
        "AddressText": "AYDINLIKEVLER MAHALLESI ZIYA ÜLHAK CADDESI AYDINLIKEVLER MAHALLESI NO:3/B-1  3/B-1",
        "Latitude": 37.90832,
        "Longitude": 32.494641
    },
    {
        "CustomerId": 473,
        "VisitDuration": "00:30",
        "VisitFreq": 4,
        "MustVisitDays": null,
        "EligibilityBeginTime (hh:mm)": "08:30",
        "EligibilityEndTime (hh:mm)": "18:00",
        "Country": "Turkey",
        "City": "VAN",
        "District": "İPEKYOLU",
        "AddressText": "VALI MITHAT BEY MAHALLESI DEFTERDARLIK CADDESI  1",
        "Latitude": 38.504885,
        "Longitude": 43.395335
    },
    {
        "CustomerId": 474,
        "VisitDuration": "00:30",
        "VisitFreq": 4,
        "MustVisitDays": null,
        "EligibilityBeginTime (hh:mm)": "08:30",
        "EligibilityEndTime (hh:mm)": "18:00",
        "Country": "Turkey",
        "City": "GAZIANTEP",
        "District": "ŞAHINBEY",
        "AddressText": "BEYAZLAR MAHALLESI SAMLI HACI ÖKKEŞ CADDESI 80",
        "Latitude": 37.052414,
        "Longitude": 37.352969
    },
    {
        "CustomerId": 478,
        "VisitDuration": "00:30",
        "VisitFreq": 4,
        "MustVisitDays": null,
        "EligibilityBeginTime (hh:mm)": "08:30",
        "EligibilityEndTime (hh:mm)": "18:00",
        "Country": "Turkey",
        "City": "BITLIS",
        "District": "TATVAN",
        "AddressText": "TUĞ MAHALLESI CUMHURIYET CADDESI  320",
        "Latitude": 38.491187,
        "Longitude": 42.289206
    },
    {
        "CustomerId": 481,
        "VisitDuration": "00:30",
        "VisitFreq": 4,
        "MustVisitDays": null,
        "EligibilityBeginTime (hh:mm)": "08:30",
        "EligibilityEndTime (hh:mm)": "18:00",
        "Country": "Turkey",
        "City": "Düzce",
        "District": "Merkez",
        "AddressText": "BURHANIYE MAHALLESI ATATÜRK BULVARI BURHANIYE MAHALLESI NO:54  54",
        "Latitude": 40.842936,
        "Longitude": 31.163762
    },
    {
        "CustomerId": 482,
        "VisitDuration": "00:30",
        "VisitFreq": 1,
        "MustVisitDays": null,
        "EligibilityBeginTime (hh:mm)": "08:30",
        "EligibilityEndTime (hh:mm)": "18:00",
        "Country": "Turkey",
        "City": "Bursa",
        "District": "İnegöl",
        "AddressText": "BURHANIYE MAHALLESI KEMER SOKAK BURHANIYE MAHALLESI NO:22  22",
        "Latitude": 40.08247,
        "Longitude": 29.511195
    },
    {
        "CustomerId": 490,
        "VisitDuration": "00:30",
        "VisitFreq": 1,
        "MustVisitDays": null,
        "EligibilityBeginTime (hh:mm)": "08:30",
        "EligibilityEndTime (hh:mm)": "18:00",
        "Country": "Turkey",
        "City": "AYDIN",
        "District": "KÖŞK",
        "AddressText": "ÇARŞI MAHALLESI GAZI MUSTAFA KEMAL CADDESI ÇARŞI MAHALLESI NO:30/A  30/A",
        "Latitude": 37.8541946411,
        "Longitude": 28.052822113
    },
    {
        "CustomerId": 492,
        "VisitDuration": "00:30",
        "VisitFreq": 4,
        "MustVisitDays": null,
        "EligibilityBeginTime (hh:mm)": "08:30",
        "EligibilityEndTime (hh:mm)": "18:00",
        "Country": "Turkey",
        "City": "OSMANIYE",
        "District": "KADIRLI",
        "AddressText": "CEMALPAŞA MAHALLESI KAMIL KARA BULVARI 195/A",
        "Latitude": 37.363813,
        "Longitude": 36.07869
    },
    {
        "CustomerId": 494,
        "VisitDuration": "00:30",
        "VisitFreq": 4,
        "MustVisitDays": null,
        "EligibilityBeginTime (hh:mm)": "08:30",
        "EligibilityEndTime (hh:mm)": "18:00",
        "Country": "Turkey",
        "City": "ANKARA",
        "District": "MAMAK",
        "AddressText": "CENGIZHAN MAHALLESI SULTAN FATIH CADDESI 24",
        "Latitude": 39.894282,
        "Longitude": 32.930808
    },
    {
        "CustomerId": 506,
        "VisitDuration": "00:30",
        "VisitFreq": 4,
        "MustVisitDays": null,
        "EligibilityBeginTime (hh:mm)": "08:30",
        "EligibilityEndTime (hh:mm)": "18:00",
        "Country": "Turkey",
        "City": "MUĞLA",
        "District": "YATAĞAN",
        "AddressText": "YENI MAHALLESI ATATÜRK CADDESI YENI MAHALLESI NO:138/A  138/A",
        "Latitude": 37.343724,
        "Longitude": 28.150016
    },
    {
        "CustomerId": 511,
        "VisitDuration": "00:30",
        "VisitFreq": 1,
        "MustVisitDays": null,
        "EligibilityBeginTime (hh:mm)": "08:30",
        "EligibilityEndTime (hh:mm)": "18:00",
        "Country": "Turkey",
        "City": "İZMIR",
        "District": "BUCA",
        "AddressText": "UFUK MAHALLESI FEVZI ÇAKMAK CADDESI UFUK MAHALLESI NO:179  179",
        "Latitude": 38.403203,
        "Longitude": 27.164086
    },
    {
        "CustomerId": 519,
        "VisitDuration": "00:30",
        "VisitFreq": 4,
        "MustVisitDays": null,
        "EligibilityBeginTime (hh:mm)": "08:30",
        "EligibilityEndTime (hh:mm)": "18:00",
        "Country": "Turkey",
        "City": "Bartın",
        "District": "Merkez",
        "AddressText": "ÇAYDÜZÜ MAHALLESI KAZIM KARABEKIR CADDESI ÇAYDÜZÜ MAHALLESI NO:16  16",
        "Latitude": 41.623509,
        "Longitude": 32.361564
    },
    {
        "CustomerId": 526,
        "VisitDuration": "00:30",
        "VisitFreq": 4,
        "MustVisitDays": null,
        "EligibilityBeginTime (hh:mm)": "08:30",
        "EligibilityEndTime (hh:mm)": "18:00",
        "Country": "Turkey",
        "City": "ISPARTA",
        "District": "MERKEZ",
        "AddressText": "DAVRAZ MAHALLESI FIRDEVS CADDESI DAVRAZ MAHALLESI NO:28  28",
        "Latitude": 37.76875,
        "Longitude": 30.567234
    },
    {
        "CustomerId": 527,
        "VisitDuration": "00:30",
        "VisitFreq": 4,
        "MustVisitDays": null,
        "EligibilityBeginTime (hh:mm)": "08:30",
        "EligibilityEndTime (hh:mm)": "18:00",
        "Country": "Turkey",
        "City": "Sakarya",
        "District": "Akyazı",
        "AddressText": "ÖMERCIKLER MAHALLESI  BATAKKÖY CAD. ÖMERCIKLER MAHALLESI NO:12  12",
        "Latitude": 40.681416,
        "Longitude": 30.623083
    },
    {
        "CustomerId": 531,
        "VisitDuration": "00:30",
        "VisitFreq": 4,
        "MustVisitDays": null,
        "EligibilityBeginTime (hh:mm)": "08:30",
        "EligibilityEndTime (hh:mm)": "18:00",
        "Country": "Turkey",
        "City": "Kocaeli",
        "District": "Kartepe",
        "AddressText": "KÖRFEZ MAHALLESI BAŞAKLI SOKAK KÖRFEZ MAHALLESI NO:23  23",
        "Latitude": 40.706446,
        "Longitude": 30.104162
    },
    {
        "CustomerId": 536,
        "VisitDuration": "00:30",
        "VisitFreq": 4,
        "MustVisitDays": null,
        "EligibilityBeginTime (hh:mm)": "08:30",
        "EligibilityEndTime (hh:mm)": "18:00",
        "Country": "Turkey",
        "City": "Kocaeli",
        "District": "Derince",
        "AddressText": "DOĞAN MAHALLESI HASAN ATAKAN CADDESI DOĞAN MAHALLESI NO:26/A  26/A",
        "Latitude": 40.765626,
        "Longitude": 29.877558
    },
    {
        "CustomerId": 539,
        "VisitDuration": "00:30",
        "VisitFreq": 4,
        "MustVisitDays": null,
        "EligibilityBeginTime (hh:mm)": "08:30",
        "EligibilityEndTime (hh:mm)": "18:00",
        "Country": "Turkey",
        "City": "Yalova",
        "District": "Altınova",
        "AddressText": "YALOVA İZMIT YOLU MERKEZ MAHALLESI (KAYTAZDERE BLD.) NO:10 ",
        "Latitude": 40.695907,
        "Longitude": 29.528276
    },
    {
        "CustomerId": 546,
        "VisitDuration": "00:30",
        "VisitFreq": 4,
        "MustVisitDays": null,
        "EligibilityBeginTime (hh:mm)": "08:30",
        "EligibilityEndTime (hh:mm)": "18:00",
        "Country": "Turkey",
        "City": "VAN",
        "District": "ERCIŞ",
        "AddressText": "SALIHIYE MAHALLESI EMNIYET CADDESI  38",
        "Latitude": 39.028387,
        "Longitude": 43.36057
    },
    {
        "CustomerId": 548,
        "VisitDuration": "00:30",
        "VisitFreq": 4,
        "MustVisitDays": null,
        "EligibilityBeginTime (hh:mm)": "08:30",
        "EligibilityEndTime (hh:mm)": "18:00",
        "Country": "Turkey",
        "City": "Kocaeli",
        "District": "İzmit",
        "AddressText": "ERENLER MAHALLESI DEVE BAĞIRTAN SOKAK ERENLER MAHALLESI NO:46  46",
        "Latitude": 40.775723,
        "Longitude": 29.941614
    },
    {
        "CustomerId": 556,
        "VisitDuration": "00:30",
        "VisitFreq": 4,
        "MustVisitDays": null,
        "EligibilityBeginTime (hh:mm)": "08:30",
        "EligibilityEndTime (hh:mm)": "18:00",
        "Country": "Turkey",
        "City": "Kocaeli",
        "District": "Körfez",
        "AddressText": "ESENTEPE MAHALLESI AĞADERE CADDESI ESENTEPE MAHALLESI NO:64/B  64/B",
        "Latitude": 40.76644279,
        "Longitude": 29.79033842
    },
    {
        "CustomerId": 569,
        "VisitDuration": "00:30",
        "VisitFreq": 4,
        "MustVisitDays": null,
        "EligibilityBeginTime (hh:mm)": "08:30",
        "EligibilityEndTime (hh:mm)": "18:00",
        "Country": "Turkey",
        "City": "Kocaeli",
        "District": "Kartepe",
        "AddressText": "FATIH SULTAN MEHMET MAHALLESI DEMOKRASI CADDESI FATIH SULTAN MEHMET MAHALLESI NO:35/A  35/A",
        "Latitude": 40.74002826,
        "Longitude": 30.01708869
    },
    {
        "CustomerId": 577,
        "VisitDuration": "00:30",
        "VisitFreq": 1,
        "MustVisitDays": null,
        "EligibilityBeginTime (hh:mm)": "08:30",
        "EligibilityEndTime (hh:mm)": "18:00",
        "Country": "Turkey",
        "City": "BATMAN",
        "District": "MERKEZ",
        "AddressText": "GAP MAHALLESI 2503 SOKAK  6",
        "Latitude": 37.8974795641,
        "Longitude": 41.1320910986
    },
    {
        "CustomerId": 580,
        "VisitDuration": "00:30",
        "VisitFreq": 4,
        "MustVisitDays": null,
        "EligibilityBeginTime (hh:mm)": "08:30",
        "EligibilityEndTime (hh:mm)": "18:00",
        "Country": "Turkey",
        "City": "GAZIANTEP",
        "District": "ŞEHITKAMIL",
        "AddressText": "GAZIKENT MAHALLESI 17. CADDESI 1",
        "Latitude": 37.091002,
        "Longitude": 37.432433
    },
    {
        "CustomerId": 582,
        "VisitDuration": "00:30",
        "VisitFreq": 4,
        "MustVisitDays": null,
        "EligibilityBeginTime (hh:mm)": "08:30",
        "EligibilityEndTime (hh:mm)": "18:00",
        "Country": "Turkey",
        "City": "Zonguldak",
        "District": "Zonguldak Merkez",
        "AddressText": "MEŞRUTIYET MAHALLESI PTT SOKAK MEŞRUTIYET MAHALLESI NO:45297  45297",
        "Latitude": 41.45430374,
        "Longitude": 31.78882599
    },
    {
        "CustomerId": 586,
        "VisitDuration": "00:30",
        "VisitFreq": 4,
        "MustVisitDays": null,
        "EligibilityBeginTime (hh:mm)": "08:30",
        "EligibilityEndTime (hh:mm)": "18:00",
        "Country": "Turkey",
        "City": "KAYSERI",
        "District": "KOCASINAN",
        "AddressText": "GEVHERNESIBE MAHALLESI ATATÜRK BULVARI  10/A",
        "Latitude": 38.7214872518,
        "Longitude": 35.4823539779
    },
    {
        "CustomerId": 615,
        "VisitDuration": "00:30",
        "VisitFreq": 4,
        "MustVisitDays": null,
        "EligibilityBeginTime (hh:mm)": "08:30",
        "EligibilityEndTime (hh:mm)": "18:00",
        "Country": "Turkey",
        "City": "İstanbul",
        "District": "Kağıthane",
        "AddressText": "Hamidiye Mh. Serdar Sk. No:19 Kagithane ",
        "Latitude": 41.093925,
        "Longitude": 28.972102
    },
    {
        "CustomerId": 619,
        "VisitDuration": "00:30",
        "VisitFreq": 4,
        "MustVisitDays": null,
        "EligibilityBeginTime (hh:mm)": "08:30",
        "EligibilityEndTime (hh:mm)": "18:00",
        "Country": "Turkey",
        "City": "Van",
        "District": "Edremit",
        "AddressText": "Urfa Yolu   HAVA ALANI LOJMANLARI C4 BLOK. VAN  1",
        "Latitude": 38.464041,
        "Longitude": 43.340684
    },
    {
        "CustomerId": 621,
        "VisitDuration": "00:30",
        "VisitFreq": 1,
        "MustVisitDays": null,
        "EligibilityBeginTime (hh:mm)": "08:30",
        "EligibilityEndTime (hh:mm)": "18:00",
        "Country": "Turkey",
        "City": "BATMAN",
        "District": "MERKEZ",
        "AddressText": "GAP  MAHALLESI Atatürk Bulvarı  102/104",
        "Latitude": 37.9041637719,
        "Longitude": 41.1319246995
    },
    {
        "CustomerId": 624,
        "VisitDuration": "00:30",
        "VisitFreq": 4,
        "MustVisitDays": null,
        "EligibilityBeginTime (hh:mm)": "08:30",
        "EligibilityEndTime (hh:mm)": "18:00",
        "Country": "Turkey",
        "City": "Zonguldak",
        "District": "Çaycuma",
        "AddressText": "SALTUKOVA BLD. HÜRRIYET CADDESI SALTUKOVA BLD. NO:75  75",
        "Latitude": 41.519765,
        "Longitude": 32.094488
    },
    {
        "CustomerId": 628,
        "VisitDuration": "00:30",
        "VisitFreq": 4,
        "MustVisitDays": null,
        "EligibilityBeginTime (hh:mm)": "08:30",
        "EligibilityEndTime (hh:mm)": "18:00",
        "Country": "Turkey",
        "City": "MUŞ",
        "District": "MERKEZ",
        "AddressText": "HÜRRIYET MAHALLESI ATATÜRK BULVARI  95/A",
        "Latitude": 38.741177,
        "Longitude": 41.496563
    },
    {
        "CustomerId": 630,
        "VisitDuration": "00:30",
        "VisitFreq": 4,
        "MustVisitDays": null,
        "EligibilityBeginTime (hh:mm)": "08:30",
        "EligibilityEndTime (hh:mm)": "18:00",
        "Country": "Turkey",
        "City": "BITLIS",
        "District": "MERKEZ",
        "AddressText": "HÜSREV PAŞA MAHALLESI SELAHATTIN EYYÜBI CADDESI  1",
        "Latitude": 38.4228508,
        "Longitude": 42.1251895
    },
    {
        "CustomerId": 635,
        "VisitDuration": "00:30",
        "VisitFreq": 4,
        "MustVisitDays": null,
        "EligibilityBeginTime (hh:mm)": "08:30",
        "EligibilityEndTime (hh:mm)": "18:00",
        "Country": "Turkey",
        "City": "KAYSERI",
        "District": "DEVELI",
        "AddressText": "İBRAHIMAĞA MAHALLESI TEKIR CADDESI  8",
        "Latitude": 38.387903,
        "Longitude": 35.489936
    },
    {
        "CustomerId": 638,
        "VisitDuration": "00:30",
        "VisitFreq": 1,
        "MustVisitDays": null,
        "EligibilityBeginTime (hh:mm)": "08:30",
        "EligibilityEndTime (hh:mm)": "18:00",
        "Country": "Turkey",
        "City": "MARDIN",
        "District": "KIZILTEPE",
        "AddressText": "İPEK MAHALLESI ALI ERTAŞ CADDESI  82",
        "Latitude": 37.185014,
        "Longitude": 40.582904
    },
    {
        "CustomerId": 644,
        "VisitDuration": "00:30",
        "VisitFreq": 1,
        "MustVisitDays": null,
        "EligibilityBeginTime (hh:mm)": "08:30",
        "EligibilityEndTime (hh:mm)": "18:00",
        "Country": "Turkey",
        "City": "Yalova",
        "District": "Yalova",
        "AddressText": "ADNAN MENDERES MAHALLESI RAHMI ÜSTEL CADDESI ADNAN MENDERES MAHALLESI NO:39  39",
        "Latitude": 40.647006,
        "Longitude": 29.260319
    },
    {
        "CustomerId": 651,
        "VisitDuration": "00:30",
        "VisitFreq": 4,
        "MustVisitDays": null,
        "EligibilityBeginTime (hh:mm)": "08:30",
        "EligibilityEndTime (hh:mm)": "18:00",
        "Country": "Turkey",
        "City": "Kocaeli",
        "District": "Gölcük",
        "AddressText": "İPEK YOLU MAHALLESI 639. SOKAK İPEK YOLU MAHALLESI NO:1-A  1-A",
        "Latitude": 40.7053317,
        "Longitude": 29.83503173
    },
    {
        "CustomerId": 664,
        "VisitDuration": "00:30",
        "VisitFreq": 4,
        "MustVisitDays": null,
        "EligibilityBeginTime (hh:mm)": "08:30",
        "EligibilityEndTime (hh:mm)": "18:00",
        "Country": "Turkey",
        "City": "KONYA",
        "District": "MERAM",
        "AddressText": "ALPASLAN MAHALLESI KARAMAN CADDESI ALPASLAN MAHALLESI NO:380  380",
        "Latitude": 37.835741,
        "Longitude": 32.513976
    },
    {
        "CustomerId": 665,
        "VisitDuration": "00:30",
        "VisitFreq": 1,
        "MustVisitDays": null,
        "EligibilityBeginTime (hh:mm)": "08:30",
        "EligibilityEndTime (hh:mm)": "18:00",
        "Country": "Turkey",
        "City": "Balıkesir",
        "District": "Karesi",
        "AddressText": "MALTEPE MAHALLESI BAĞLAR SOKAK MALTEPE MAHALLESI NO:244/A  244/A",
        "Latitude": 39.665223,
        "Longitude": 27.882283
    },
    {
        "CustomerId": 667,
        "VisitDuration": "00:30",
        "VisitFreq": 4,
        "MustVisitDays": null,
        "EligibilityBeginTime (hh:mm)": "08:30",
        "EligibilityEndTime (hh:mm)": "18:00",
        "Country": "Turkey",
        "City": "İstanbul",
        "District": "Gaziosmanpaşa",
        "AddressText": "Karlıtepe Mah. Ordu Cd.No:228 Gazıosmanpasa ",
        "Latitude": 41.05879,
        "Longitude": 28.928457
    },
    {
        "CustomerId": 674,
        "VisitDuration": "00:30",
        "VisitFreq": 4,
        "MustVisitDays": null,
        "EligibilityBeginTime (hh:mm)": "08:30",
        "EligibilityEndTime (hh:mm)": "18:00",
        "Country": "Turkey",
        "City": "KAYSERI",
        "District": "YAHYALI",
        "AddressText": "SEYDILI MAHALLESI ATATÜRK BULVARI  57",
        "Latitude": 38.101413,
        "Longitude": 35.359036
    },
    {
        "CustomerId": 679,
        "VisitDuration": "00:30",
        "VisitFreq": 1,
        "MustVisitDays": null,
        "EligibilityBeginTime (hh:mm)": "08:30",
        "EligibilityEndTime (hh:mm)": "18:00",
        "Country": "Turkey",
        "City": "Balıkesir",
        "District": "Gömeç",
        "AddressText": "MITHATPAŞA MAHALLESI ATATÜRK CADDESI MITHATPAŞA MAHALLESI NO:55  55",
        "Latitude": 39.3888588,
        "Longitude": 26.84056282
    },
    {
        "CustomerId": 682,
        "VisitDuration": "00:30",
        "VisitFreq": 4,
        "MustVisitDays": null,
        "EligibilityBeginTime (hh:mm)": "08:30",
        "EligibilityEndTime (hh:mm)": "18:00",
        "Country": "Turkey",
        "City": "Zonguldak",
        "District": "Ereğli",
        "AddressText": "KEPEZ MAHALLESI PROF. DR. MUAMMER AKSOY CADDESI KEPEZ MAHALLESI NO:237  237",
        "Latitude": 41.26665115,
        "Longitude": 31.48150635
    },
    {
        "CustomerId": 684,
        "VisitDuration": "00:30",
        "VisitFreq": 1,
        "MustVisitDays": null,
        "EligibilityBeginTime (hh:mm)": "08:30",
        "EligibilityEndTime (hh:mm)": "18:00",
        "Country": "Turkey",
        "City": "MANISA",
        "District": "KIRKAĞAÇ",
        "AddressText": "KOCAMEHMETAĞA MAHALLESI İSMAIL HAKKI CADDESI KOCAMEHMETAĞA MAHALLESI NO: 34-   34-",
        "Latitude": 39.105578,
        "Longitude": 27.671106
    },
    {
        "CustomerId": 685,
        "VisitDuration": "00:30",
        "VisitFreq": 4,
        "MustVisitDays": null,
        "EligibilityBeginTime (hh:mm)": "08:30",
        "EligibilityEndTime (hh:mm)": "18:00",
        "Country": "Turkey",
        "City": "Sakarya",
        "District": "Sapanca",
        "AddressText": "ERSIN CADDESI RÜSTEMPAŞA MAHALLESI NO:47/1-2-3-4-5-6-7 ",
        "Latitude": 40.69377385,
        "Longitude": 30.2655465
    },
    {
        "CustomerId": 696,
        "VisitDuration": "00:30",
        "VisitFreq": 4,
        "MustVisitDays": null,
        "EligibilityBeginTime (hh:mm)": "08:30",
        "EligibilityEndTime (hh:mm)": "18:00",
        "Country": "Turkey",
        "City": "Düzce",
        "District": "Düzce Merkez",
        "AddressText": "KÖRPEŞLER MAHALLESI HÜRRIYET CADDESI KÖRPEŞLER MAHALLESI NO:48  48",
        "Latitude": 40.854174,
        "Longitude": 31.155165
    },
    {
        "CustomerId": 702,
        "VisitDuration": "00:30",
        "VisitFreq": 1,
        "MustVisitDays": null,
        "EligibilityBeginTime (hh:mm)": "08:30",
        "EligibilityEndTime (hh:mm)": "18:00",
        "Country": "Turkey",
        "City": "Balıkesir",
        "District": "Gönen",
        "AddressText": "KURTULUŞ MAHALLESI KIZILAY CADDESI KURTULUŞ MAHALLESI NO:34  34",
        "Latitude": 40.110532,
        "Longitude": 27.657165
    },
    {
        "CustomerId": 706,
        "VisitDuration": "00:30",
        "VisitFreq": 4,
        "MustVisitDays": null,
        "EligibilityBeginTime (hh:mm)": "08:30",
        "EligibilityEndTime (hh:mm)": "18:00",
        "Country": "Turkey",
        "City": "MUŞ",
        "District": "VARTO",
        "AddressText": "KÜLTÜR MAHALLESI CUMHURIYET CADDESI  53",
        "Latitude": 38.734863,
        "Longitude": 41.495524
    },
    {
        "CustomerId": 714,
        "VisitDuration": "00:30",
        "VisitFreq": 4,
        "MustVisitDays": null,
        "EligibilityBeginTime (hh:mm)": "08:30",
        "EligibilityEndTime (hh:mm)": "18:00",
        "Country": "Turkey",
        "City": "ADANA",
        "District": "SARIÇAM",
        "AddressText": "MEHMET AKIF ERSOY MAHALLESI KOZAN CADDESI 264/A",
        "Latitude": 37.016372,
        "Longitude": 35.386709
    },
    {
        "CustomerId": 715,
        "VisitDuration": "00:30",
        "VisitFreq": 4,
        "MustVisitDays": null,
        "EligibilityBeginTime (hh:mm)": "08:30",
        "EligibilityEndTime (hh:mm)": "18:00",
        "Country": "Turkey",
        "City": "Kocaeli",
        "District": "İzmit",
        "AddressText": "M. ALIPAŞA MAHALLESI BAĞDAT CADDESI M. ALIPAŞA MAHALLESI NO:1  1",
        "Latitude": 40.767357,
        "Longitude": 29.952767
    },
    {
        "CustomerId": 722,
        "VisitDuration": "00:30",
        "VisitFreq": 4,
        "MustVisitDays": null,
        "EligibilityBeginTime (hh:mm)": "08:30",
        "EligibilityEndTime (hh:mm)": "18:00",
        "Country": "Turkey",
        "City": "İstanbul",
        "District": "Küçükçekmece",
        "AddressText": "Mehmet Akıf Mh.K.Pasa Cd.Türkmen Sk.No:34/Ikıtellı ",
        "Latitude": 41.05609803,
        "Longitude": 28.80168912
    },
    {
        "CustomerId": 730,
        "VisitDuration": "00:30",
        "VisitFreq": 4,
        "MustVisitDays": null,
        "EligibilityBeginTime (hh:mm)": "08:30",
        "EligibilityEndTime (hh:mm)": "18:00",
        "Country": "Turkey",
        "City": "İstanbul",
        "District": "Esenyurt",
        "AddressText": "Merkez Mah. Baglarçesme Cad. No:1 ",
        "Latitude": 41.034273,
        "Longitude": 28.677106
    },
    {
        "CustomerId": 732,
        "VisitDuration": "00:30",
        "VisitFreq": 4,
        "MustVisitDays": null,
        "EligibilityBeginTime (hh:mm)": "08:30",
        "EligibilityEndTime (hh:mm)": "18:00",
        "Country": "Turkey",
        "City": "ANTALYA",
        "District": "ALANYA",
        "AddressText": "AVSALLAR MAHALLESI HATIP SOKAK AVSALLAR MAHALLESI NO:13  13",
        "Latitude": 36.6214408875,
        "Longitude": 31.7726860046
    },
    {
        "CustomerId": 734,
        "VisitDuration": "00:30",
        "VisitFreq": 4,
        "MustVisitDays": null,
        "EligibilityBeginTime (hh:mm)": "08:30",
        "EligibilityEndTime (hh:mm)": "18:00",
        "Country": "Turkey",
        "City": "Kocaeli",
        "District": "Gölcük",
        "AddressText": "MERKEZ MAHALLESI PREVEZE CADDESI MERKEZ MAHALLESI NO:69  69",
        "Latitude": 40.717471,
        "Longitude": 29.823538
    },
    {
        "CustomerId": 742,
        "VisitDuration": "00:30",
        "VisitFreq": 4,
        "MustVisitDays": null,
        "EligibilityBeginTime (hh:mm)": "08:30",
        "EligibilityEndTime (hh:mm)": "18:00",
        "Country": "Turkey",
        "City": "Kocaeli",
        "District": "Körfez",
        "AddressText": "MIMAR SINAN MAHALLESI MEHMET AKIF ERSOY CADDESI MIMAR SINAN MAHALLESI NO:136  136",
        "Latitude": 40.769798,
        "Longitude": 29.753812
    },
    {
        "CustomerId": 746,
        "VisitDuration": "00:30",
        "VisitFreq": 4,
        "MustVisitDays": null,
        "EligibilityBeginTime (hh:mm)": "08:30",
        "EligibilityEndTime (hh:mm)": "18:00",
        "Country": "Turkey",
        "City": "Edirne",
        "District": "Merkez",
        "AddressText": "Muammer Aksoy Cad.Emlak Dük.3/4 Edırne /Merkez/Edırne ",
        "Latitude": 41.65342,
        "Longitude": 26.595729
    },
    {
        "CustomerId": 752,
        "VisitDuration": "00:30",
        "VisitFreq": 1,
        "MustVisitDays": null,
        "EligibilityBeginTime (hh:mm)": "08:30",
        "EligibilityEndTime (hh:mm)": "18:00",
        "Country": "Turkey",
        "City": "MANISA",
        "District": "SOMA",
        "AddressText": "NAMAZGAH MAHALLESI ADALET CADDESI NAMAZGAH MAHALLESI NO:24/A  24/A",
        "Latitude": 39.183133,
        "Longitude": 27.601281
    },
    {
        "CustomerId": 764,
        "VisitDuration": "00:30",
        "VisitFreq": 4,
        "MustVisitDays": null,
        "EligibilityBeginTime (hh:mm)": "08:30",
        "EligibilityEndTime (hh:mm)": "18:00",
        "Country": "Turkey",
        "City": "NIĞDE",
        "District": "MERKEZ",
        "AddressText": "ŞAHINALI MAHALLESI ESIN ERIŞINGI CADDESI  27/D",
        "Latitude": 37.971502,
        "Longitude": 34.683197
    },
    {
        "CustomerId": 765,
        "VisitDuration": "00:30",
        "VisitFreq": 1,
        "MustVisitDays": null,
        "EligibilityBeginTime (hh:mm)": "08:30",
        "EligibilityEndTime (hh:mm)": "18:00",
        "Country": "Turkey",
        "City": "Bursa",
        "District": "Nilüfer",
        "AddressText": "BALAT MAHALLESI 5. SOKAK BALAT MAHALLESI NO:1  1",
        "Latitude": 40.254702,
        "Longitude": 28.952846
    },
    {
        "CustomerId": 769,
        "VisitDuration": "00:30",
        "VisitFreq": 4,
        "MustVisitDays": null,
        "EligibilityBeginTime (hh:mm)": "08:30",
        "EligibilityEndTime (hh:mm)": "18:00",
        "Country": "Turkey",
        "City": "KAYSERI",
        "District": "MELIKGAZI",
        "AddressText": "OSMANLI MAHALLESI EDIP ÇIKMAZI  5",
        "Latitude": 38.6898090469,
        "Longitude": 35.4750590399
    },
    {
        "CustomerId": 779,
        "VisitDuration": "00:30",
        "VisitFreq": 4,
        "MustVisitDays": null,
        "EligibilityBeginTime (hh:mm)": "08:30",
        "EligibilityEndTime (hh:mm)": "18:00",
        "Country": "Turkey",
        "City": "Diyarbakır",
        "District": "Merkez",
        "AddressText": "PEYAS MAH.  FIRAT BULV. FURKAN 19 APT  150",
        "Latitude": 37.933038,
        "Longitude": 40.162127
    },
    {
        "CustomerId": 782,
        "VisitDuration": "00:30",
        "VisitFreq": 4,
        "MustVisitDays": null,
        "EligibilityBeginTime (hh:mm)": "08:30",
        "EligibilityEndTime (hh:mm)": "18:00",
        "Country": "Turkey",
        "City": "KONYA",
        "District": "EREĞLI",
        "AddressText": "PIRÖMER MAHALLESI HACI NEBI SK PIRÖMER MAHALLESI NO:15  15",
        "Latitude": 37.51371,
        "Longitude": 34.046113
    },
    {
        "CustomerId": 786,
        "VisitDuration": "00:30",
        "VisitFreq": 4,
        "MustVisitDays": null,
        "EligibilityBeginTime (hh:mm)": "08:30",
        "EligibilityEndTime (hh:mm)": "18:00",
        "Country": "Turkey",
        "City": "RIZE",
        "District": "MERKEZ",
        "AddressText": "PIRIÇELEBI MAHALLESI ATATÜRK CADDESI  312",
        "Latitude": 41.026348,
        "Longitude": 40.51489
    },
    {
        "CustomerId": 789,
        "VisitDuration": "00:30",
        "VisitFreq": 4,
        "MustVisitDays": null,
        "EligibilityBeginTime (hh:mm)": "08:30",
        "EligibilityEndTime (hh:mm)": "18:00",
        "Country": "Turkey",
        "City": "Sakarya",
        "District": "Hendek",
        "AddressText": "BAŞPINAR MAHALLESI MUAMMER SENCER CADDESI BAŞPINAR MAHALLESI NO:28  28",
        "Latitude": 40.796983,
        "Longitude": 30.74302
    },
    {
        "CustomerId": 790,
        "VisitDuration": "00:30",
        "VisitFreq": 4,
        "MustVisitDays": null,
        "EligibilityBeginTime (hh:mm)": "08:30",
        "EligibilityEndTime (hh:mm)": "18:00",
        "Country": "Turkey",
        "City": "Bolu",
        "District": "Bolu Merkez",
        "AddressText": "SAĞLIK MAHALLESI KARADERE CADDESI SAĞLIK MAHALLESI NO:25  25",
        "Latitude": 40.741485,
        "Longitude": 31.617103
    },
    {
        "CustomerId": 792,
        "VisitDuration": "00:30",
        "VisitFreq": 4,
        "MustVisitDays": null,
        "EligibilityBeginTime (hh:mm)": "08:30",
        "EligibilityEndTime (hh:mm)": "18:00",
        "Country": "Turkey",
        "City": "GAZIANTEP",
        "District": "ŞAHINBEY",
        "AddressText": "ŞAHINTEPE MAHALLESI 133394. CADDESI 3/A",
        "Latitude": 37.019038,
        "Longitude": 37.339248
    },
    {
        "CustomerId": 796,
        "VisitDuration": "00:30",
        "VisitFreq": 4,
        "MustVisitDays": null,
        "EligibilityBeginTime (hh:mm)": "08:30",
        "EligibilityEndTime (hh:mm)": "18:00",
        "Country": "Turkey",
        "City": "Kocaeli",
        "District": "İzmit",
        "AddressText": "SANAYI MAHALLESI KARAYOLU CADDESI SANAYI MAHALLESI NO:300  300",
        "Latitude": 40.7572963,
        "Longitude": 29.9630226
    },
    {
        "CustomerId": 798,
        "VisitDuration": "00:30",
        "VisitFreq": 4,
        "MustVisitDays": null,
        "EligibilityBeginTime (hh:mm)": "08:30",
        "EligibilityEndTime (hh:mm)": "18:00",
        "Country": "Turkey",
        "City": "KAHRAMANMARAŞ",
        "District": "ONIKIŞUBAT",
        "AddressText": "ŞAZI BEY MAHALLESI ORHAN SEZAL BULVARI 27",
        "Latitude": 37.564808,
        "Longitude": 36.919525
    },
    {
        "CustomerId": 799,
        "VisitDuration": "00:30",
        "VisitFreq": 4,
        "MustVisitDays": null,
        "EligibilityBeginTime (hh:mm)": "08:30",
        "EligibilityEndTime (hh:mm)": "18:00",
        "Country": "Turkey",
        "City": "KAHRAMANMARAŞ",
        "District": "ONIKIŞUBAT",
        "AddressText": "ŞAZI BEY MAHALLESI ORHAN SEZAL BULVARI 2",
        "Latitude": 37.564735,
        "Longitude": 36.916813
    },
    {
        "CustomerId": 800,
        "VisitDuration": "00:30",
        "VisitFreq": 1,
        "MustVisitDays": null,
        "EligibilityBeginTime (hh:mm)": "08:30",
        "EligibilityEndTime (hh:mm)": "18:00",
        "Country": "Turkey",
        "City": "Yalova",
        "District": "Yalova",
        "AddressText": "SÜLEYMAN BEY MAHALLESI SEFABEY CADDESI SÜLEYMAN BEY MAHALLESI NO:7/A  7/A",
        "Latitude": 40.657157,
        "Longitude": 29.273852
    },
    {
        "CustomerId": 809,
        "VisitDuration": "00:30",
        "VisitFreq": 4,
        "MustVisitDays": null,
        "EligibilityBeginTime (hh:mm)": "08:30",
        "EligibilityEndTime (hh:mm)": "18:00",
        "Country": "Turkey",
        "City": "Kocaeli",
        "District": "Başiskele",
        "AddressText": "SERDAR MAHALLESI PASINLER CADDESI SERDAR MAHALLESI NO:18/!  18/!",
        "Latitude": 40.709804,
        "Longitude": 29.942799
    },
    {
        "CustomerId": 826,
        "VisitDuration": "00:30",
        "VisitFreq": 4,
        "MustVisitDays": null,
        "EligibilityBeginTime (hh:mm)": "08:30",
        "EligibilityEndTime (hh:mm)": "18:00",
        "Country": "Turkey",
        "City": "ADANA",
        "District": "SEYHAN",
        "AddressText": "SÜMER MAHALLESI İBO OSMAN CADDESI 6/A",
        "Latitude": 37.010822,
        "Longitude": 35.315235
    }
]